관서명,주소,Latitude,Longitude
을지지구대,서울특별시 중구  을지로 234,37.5664707,127.0039404
광희지구대,서울특별시 중구  퇴계로 375-1,37.5652432,127.0133851
약수지구대,"서울특별시 중구  동호로 5길 15, 약수지구대",37.5521475,127.0123488
신당파출소,"서울특별시 중구  다산로 248 (신당동, 신당파출소)",37.5650079,127.0163825
장충파출소,서울특별시 중구  동호로 261,37.5588159,127.0048761
충무파출소,서울특별시 중구  퇴계로 178,37.5608522,126.9915765
을지로3가파출소,서울특별시 중구 충무로56-1,37.5661811,126.9928486
종로2가지구대,서울특별시 종로구  종로17길 4 종로2가파출소,37.5705017,126.9889217
관수파출소,서울특별시 종로구  삼일대로 386,37.5689572,126.98815
세검정파출소,서울특별시 종로구  세검정로 226 ,37.6000351,126.9584514
평창파출소,서울특별시 종로구  평창문화로 46,37.6047609,126.9654294
삼청파출소,서울특별시 종로구  삼청로 66,37.5814059,126.9811324
통의파출소,서울특별시 종로구  효자로 9,37.5767705,126.9740008
청운파출소,서울특별시 종로구  자하문로 92-1,37.5841381,126.9705976
옥인파출소,서울특별시 종로구  자하문로17길 24,37.5814725,126.9694271
교남파출소,서울특별시 종로구  송월길 167(교북동 10-38),37.5722606,126.9611435
세종로파출소,서울특별시 중구  세종대로 141,37.5689364,126.9764239
신문로파출소,서울특별시 종로구  경희궁길 6-3,37.570751,126.9722054
사직파출소,서울특별시 종로구  사직로9길 1,37.5759361,126.967264
청진파출소,서울특별시 종로구  삼봉로 33 청진파출소,37.5725619,126.978997
태평로파출소,서울특별시 중구  다동길 11,37.5680342,126.9800551
서울역파출소,서울특별시 중구  통일로 13,37.5562987,126.9718126
명동파출소,서울특별시 중구  명동길 30 명동파출소,37.5635808,126.983966
남대문파출소,서울특별시 중구  남대문시장4길 28-16,37.5594216,126.9762398
중림파출소,서울특별시 중구  중림로 36,37.5578847,126.9671311
회현파출소,서울특별시 중구  퇴계로6길 3-10,37.5578126,126.9790112
서소문파출소,서울특별시 중구  서소문로 131-1 서소문파출소,37.5638544,126.975449
충정로지구대,서울특별시 서대문구  독립문로 25-1,37.5698922,126.9611209
신촌지구대,서울특별시 서대문구  신촌역로 22,37.5585748,126.9429921
홍은파출소,서울특별시 서대문구 세검정로1길 112,37.5952417,126.946418
연희파출소,서울특별시 서대문구  연희로25길 73,37.5703278,126.9329029
남가좌파출소,서울특별시 서대문구  가재울로4길 51,37.5760219,126.9240678
북가좌파출소,서울특별시 서대문구  증가로 244,37.5829851,126.9128737
홍제파출소,서울특별시 서대문구  통일로 441-1,37.5881612,126.9445399
홍은2파출소,서울특별시 서대문구  연희로 298,37.5836756,126.9361657
혜화파출소,서울특별시 종로구  창경궁로 279 ,37.5861068,127.0014054
대학로파출소,서울특별시 종로구  이화장2길 33,37.5785962,127.0060393
명륜파출소,서울특별시 종로구  성균관로 78,37.5892964,126.9976135
창신파출소,서울특별시 종로구  지봉로13길 20-12,37.5784788,127.0136459
동묘파출소,서울특별시 종로구  종로58가길 19 동묘파출소,37.5726459,127.0171044
덕산파출소,서울특별시 종로구  창신길 98,37.5759995,127.010524
종로5가파출소,서울특별시 종로구  동호로 407,37.5707326,127.0016342
효제파출소,서울특별시 종로구  종로41나길 24-6,37.5729461,127.0048693
원효지구대,서울특별시 용산구  백범로 329,37.5386609,126.9655062
용중지구대,"서울특별시 용산구  후암로16나길 17, 용중지구대",37.5491203,126.9784422
이태원파출소,서울특별시 용산구  이태원로 184,37.5342949,126.9944044
한남파출소,"서울특별시 용산구  대사관로34길 53, 한남파출소",37.5310164,127.0062836
보광파출소,"서울특별시 용산구  보광로 25-1, 보광파출소",37.5268368,127.0001932
삼각지파출소,서울특별시 용산구  한강대로198-2,37.5361157,126.9747139
한강로지구대,서울특별시 용산구  서빙고로67,37.5242741,126.9706849
돈암지구대,서울특별시 성북구  아리랑로5길 54,37.5972819,127.0123966
안암지구대,서울특별시 성북구  지봉로21길 45,37.5866821,127.0166001
길음지구대,서울특별시 성북구  삼양로13길 51 길음지구대,37.6106292,127.0192457
정릉파출소,서울특별시 성북구  솔샘로 111,37.6160838,127.0086109
정릉2파출소,서울특별시 성북구  정릉로26길 6 정릉2파출소,37.6045307,127.0106875
성북파출소,서울특별시 성북구  성북로 94  성북파출소,37.5932791,126.9985215
답십리지구대,서울시 동대문구 사가정로 2길 9,37.5712809,127.0511477
용신지구대,서울특별시 동대문구  청계천로549,37.5728426,127.0372307
청량리파출소,서울특별시 동대문구 약령시로21길 15,37.5840966,127.0452633
제기파출소,서울특별시 동대문구 약령시로 17길 59-11,37.5855849,127.0420335
전농1파출소,서울특별시 동대문구 서울시립대로 56,37.5761361,127.0479386
전농2파출소,서울특별시 동대문구 전농로38다길 21,37.5863258,127.0542318
장안1파출소,서울특별시 동대문구 한천로20길 7,37.5694324,127.064899
장안2파출소,서울특별시 동대문구  답십리로 69길 100,37.5767834,127.0743654
이문지구대,서울특별시 동대문구  한천로 402,37.5964917,127.0681261
휘경파출소,서울특별시 동대문구  한천로 266,37.5846694,127.0680102
회기파출소,서울특별시 동대문구  회기로18길 2,37.5910751,127.0518528
서강지구대,"서울특별시 마포구  독막로22길 8(창전동, 서강지구대)",37.5473378,126.9291956
공덕지구대,서울특별시 마포구 마포대로 195-1,37.5517993,126.9540594
월드컵지구대,서울특별시 마포구  월드컵북로 30길 24,37.5687535,126.9090424
홍익지구대,서울특별시 마포구  양화로11길 63,37.5518627,126.9134473
용강지구대,서울특별시 마포구 토정로31길 35,37.5425671,126.9430791
상암파출소,서울특별시 마포구  매봉산로 76,37.5782477,126.8938555
망원파출소,서울특별시 마포구  망원로2길 63,37.5543305,126.9027303
연남파출소,서울특별시 마포구  연남로 4,37.5603349,126.9237597
중앙지구대,서울특별시 영등포구  영등포로46길 14,37.5180146,126.9075396
여의도지구대,서울특별시 영등포구  여의공원로 120 여의도지구대,37.529594,126.92667
문래지구대,서울특별시 영등포구  경인로 759,37.5135703,126.8976399
신풍지구대,서울특별시 영등포구 신길동 4533-16,37.4979795,126.9111478
신길지구대,서울특별시 영등포구 노량진로 11,37.5128742,126.9260395
양평파출소,서울특별시 영등포구  선유로 95,37.5227185,126.8897017
당산지구대,서울특별시 영등포구  당산로 221,37.5336195,126.901288
대림지구대,서울특별시 영등포구  대림로23길 16-1,37.4934202,126.8987265
대림3파출소,서울특별시 영등포구 대림로 197,37.4983297,126.8980767
영등포역파출소,서울특별시 영등포구 영신로20길 11,37.5151247,126.9087325
한양지구대,서울특별시 성동구  사근동길 5,37.5603055,127.041766
성수지구대,서울특별시 성동구  광나루로2길 35 성수지구대,37.5481496,127.0551847
서울숲지구대,서울특별시 성동구  성덕정길 77-2,37.5380443,127.0522756
왕십리파출소,서울특별시 성동구  마장로 205,37.5666533,127.0326493
행당파출소,서울특별시 성동구  행당로 89,37.5574251,127.0288558
옥수파출소,서울특별시 성동구  독서당로 211,37.5449597,127.0138463
금호파출소,서울특별시 성동구  금호로11길 2-1,37.5547323,127.0196132
응봉파출소,서울특별시 성동구  독서당로 373 응봉파출소,37.549767,127.0300234
용답파출소,서울특별시 성동구  용답중앙길 49 용답파출소,37.5647586,127.0517402
사당지구대,서울특별시 동작구  동작대로9길 35,37.4804874,126.9797723
노량진지구대,서울특별시 동작구  등용로12나길 2,37.5111541,126.9332824
상도지구대,서울특별시 동작구  등용로 24 ,37.5064892,126.9358441
남성지구대,서울특별시 동작구 사당로17나길 4,37.484119,126.9732502
흑석지구대,서울특별시 동작구 노량진로 248,37.5123933,126.953643
신대방지구대,서울특별시 동작구 신대방1다길 24,37.4866619,126.9059134
대방파출소,서울특별시 동작구 여의대방로 130,37.498567,126.9206022
광나루지구대,서울특별시 광진구 아차산로 567,37.5444558,127.1033877
화양지구대,서울특별시 광진구  능동로17길 39 화양지구대,37.5465667,127.0713499
중곡1파출소,서울특별시 광진구 능동로 385,37.563723,127.0827863
중곡2파출소,서울특별시 광진구  능동로 346,37.5602505,127.0814843
중곡3파출소,서울특별시 광진구 동일로76가길 28,37.5688192,127.0801404
중곡4파출소,서울특별시 광진구  용마산로24길 7,37.5653353,127.087218
자양파출소,서울특별시 광진구 뚝섬로36길 9,37.5338683,127.0716102
자양1파출소,서울특별시 광진구  자양번영로 80,37.5366309,127.076921
자양4파출소,서울특별시 광진구  뚝섬로22가길 43번지 자양4파출소,37.5351513,127.0636287
구의파출소,서울특별시 광진구 광나루로 43길 26 구의파출소,37.5458868,127.0916497
응암지구대,서울특별시 은평구  은평로 171,37.6015836,126.9264643
신사지구대,서울특별시 은평구  은평터널로5길 6호,37.5918104,126.9053669
녹번파출소,서울특별시 은평구  진흥로 진흥로200,37.6081391,126.9323304
응암3파출소,서울특별시 은평구  응암로 208 ,37.5905279,126.9175364
역촌파출소,서울특별시 은평구  연서로 61,37.6044279,126.9151883
미아지구대,서울특별시 강북구 도봉로 127,37.6201611,127.0282954
솔샘지구대,서울특별시 강북구 오현로 4,37.6163126,127.0303989
수유1파출소,서울특별시 강북구  삼양로 305,37.6306502,127.0175895
수유2파출소,서울특별시 강북구 삼각산로 115,37.6409113,127.0171016
수유3파출소,서울특별시 강북구  한천로150길 76,37.6443456,127.026571
인수파출소,서울특별시 강북구 인수봉로 227,37.6394394,127.0123991
번동파출소,서울특별시 강북구  한천로 969,37.63599,127.0326008
번3파출소,서울특별시 강북구  월계로 227,37.6236112,127.0481447
삼양파출소,서울특별시 강북구  삼양로 239-1,37.6248025,127.0181839
금천파출소,서울특별시 금천구 시흥대로57길 45,37.4542242,126.8998381
문성지구대,서울특별시 금천구  독산로 76길 20,37.4695308,126.9034406
백산지구대,서울특별시 금천구  탑골로2길 37 백산지구대,37.4509431,126.9125325
가산파출소,서울특별시 금천구  벚꽃로56길 174,37.479919,126.8880499
독산파출소,서울특별시 금천구  벚꽃로10길 89,37.4646641,126.8948276
망우지구대,서울특별시 중랑구  망우로 391,37.5990933,127.0956749
중화지구대,서울특별시 중랑구  중랑천로 146,37.5979964,127.0722033
용마지구대,서울특별시 중랑구 동일로 566,37.5799415,127.0810446
봉화지구대,서울특별시 중랑구  신내로 177,37.614796,127.0955609
면목본동파출소,서울특별시 중랑구  상봉로 27,37.5882137,127.0939012
면목삼팔파출소,서울특별시 중랑구  사가정로41길 45 (면목3.8파출소),37.5831943,127.0841512
상봉파출소,서울특별시 중랑구  중랑천로 69 상봉파출소,37.591339,127.0728207
먹골파출소,서울특별시 중랑구 숙선옹주로7길 1,37.6146259,127.0815386
역삼지구대,서울특별시 강남구 언주로108길 20,37.5083524,127.0409897
논현1파출소,서울특별시 강남구 학동로 169,37.5138791,127.0293066
논현2파출소,서울특별시 강남구 학동로 227,37.5152074,127.0338473
삼성1파출소,서울특별시 강남구 영동대로112길 4,37.5148489,127.0605684
삼성2파출소,서울특별시 강남구 선릉로 624,37.5006784,127.0489432
청담파출소,서울특별시 강남구 학동로95길 19,37.5210873,127.053227
신사파출소,서울특별시 강남구 도산대로 143,37.5183334,127.0241702
압구정파출소,서울특별시 강남구 압구정로 311,37.5293416,127.0355918
당곡지구대,서울특별시 관악구  남부순환로191길 12 당곡지구대,37.4859844,126.9343818
낙성대지구대,"서울특별시 관악구  봉천로 540, 낙성대지구대",37.4783734,126.9576554
신림지구대,서울특별시 관악구  남부순환로188길 12 신림지구대,37.4839993,126.9333315
관악산지구대,서울특별시 관악구  신림로 178 관악산지구대,37.4738232,126.9351708
구암지구대,서울특별시 관악구 은천로 93,37.4892875,126.9447672
남현파출소,서울특별시 관악구  남현1가길 29 남현파출소,37.4746571,126.9778055
난우파출소,서울특별시 관악구  난곡로64 난우파출소,37.4611268,126.9192473
미성파출소,서울특별시 관악구  난곡로64가길 31,37.4802834,126.9155529
신사지구대,서울특별시 관악구  신사로 106,37.4873262,126.914224
화곡지구대,서울특별시 강서구  화곡로 308,37.5512778,126.8500113
공항지구대,서울특별시 강서구  방화동로 5 ,37.5623207,126.8082914
까치산지구대,서울특별시 강서구  강서로7길 39,37.5293298,126.8455742
가양지구대,서울강서구 허준로221-22 염강초등학교 1층(임시청사),37.5611652,126.8640098
곰달래지구대,서울특별시 강서구  곰달래로59길 12,37.5328952,126.8631355
방화3파출소,서울특별시 강서구  금낭화로26길 16,37.5798086,126.8146637
염창지구대,서울특별시 강서구  공항대로59다길 80,37.5518991,126.8674085
등촌2파출소,서울특별시 강서구  등촌로 167 ,37.5447718,126.8619202
발산지구대,서울특별시 강서구  수명로2길 46 ,37.5493916,126.8260837
화곡3파출소,서울특별시 강서구  강서로45다길 71,37.5446703,126.8351964
마곡지구대,서울특별시 강서구 마곡중앙5로 32,37.5670522,126.8232263
천호지구대,"서울특별시 강동구  구천면로 141, 천호지구대",37.5414579,127.1354748
길동지구대,서울특별시 강동구 양재대로96길 35,37.5295087,127.1391995
성내지구대,서울특별시 강동구  성내로 57 성내지구대 ,37.5295697,127.1239563
암사지구대,서울특별시 강동구  고덕로 137 암사지구대,37.5549581,127.1407803
둔촌파출소,서울특별시 강동구  진황도로 239 둔촌파출소,37.5253425,127.1456295
명일파출소,서울특별시 강동구 동남로 895 명일파출소,37.5536024,127.1560736
강일파출소,서울특별시 강동구  아리수로91길 20,37.5648437,127.1732748
고덕파출소,서울특별시 강동구  고덕로 61길61,37.5573421,127.1517305
상일파출소,서울특별시 강동구 고덕로 80길 7,37.5561836,127.1658284
석관파출소,서울특별시 성북구  화랑로32가길 20 석관파출소,37.608969,127.0552581
장위지구대,서울특별시 성북구 장위로174 장위지구대,37.6193708,127.053603
월곡지구대,서울특별시 성북구  종암로32길 5 월곡지구대,37.6043982,127.0324129
종암파출소,서울특별시 성북구  종암로23길 52,37.6000864,127.0312535
신구로지구대,서울특별시 구로구 새말로 26 신구로지구대,37.5022496,126.8838927
오류지구대,서울특별시 구로구  고척로1길 34 오류지구대,37.4947379,126.8388078
구일지구대,서울특별시 구로구  도림로 63 구일지구대,37.4892371,126.8907025
고척지구대,서울특별시 구로구 중앙로 15길 30 고척지구대,37.50654,126.8582329
개봉지구대,서울특별시 구로구  개봉로18길 5 개봉지구대,37.4918286,126.8564568
구로3파출소,서울특별시 구로구  디지털로31길 86 구로3파출소,37.4866541,126.8913691
가리봉파출소,서울특별시 구로구 남부순환로 1275 가리봉파출소,37.4791578,126.8926325
천왕파출소,서울특별시 구로구 오리로 1102-8,37.4834277,126.84181
반포지구대,서울특별시 서초구 신반포로190,37.5059834,127.0051816
서초2파출소,서울 서초구 서운로 38,37.4875131,127.0289593
서초3파출소,서울 서초구 반포대로30길 40,37.4919865,127.0107859
양재파출소,서울 서초구 남부순환로356길 9,37.4845428,127.0378441
서초파출소,서울 서초구 효령로 297,37.4852897,127.0167473
우면파출소,서울 서초구 바우뫼로 45,37.471845,127.0271792
내곡파출소,서울특별시 서초구 헌릉로 226,37.454992,127.0648545
목1지구대,서울특별시 양천구  목동동로 373,37.5351903,126.8785906
목2지구대,서울특별시 양천구  등촌로 166,37.5445156,126.862375
신정1지구대,서울특별시 양천구  중앙로32길 65,37.5202891,126.8607933
신정2지구대,서울특별시 양천구 목동로17길 5,37.5244487,126.863509
신월2지구대,서울특별시 양천구 지양로 55,37.5197426,126.8349027
신월1파출소,서울특별시 양천구  남부순환로59길 8 ,37.5320806,126.8322435
신정3파출소,서울특별시 양천구  중앙로 205,37.5149133,126.8550058
신월5파출소,서울특별시 양천구  남부순환로31길 37,37.5390442,126.8306805
방이지구대,서울특별시 송파구  양재대로71길 5-6,37.5102514,127.1257318
잠실지구대,서울특별시 송파구  올림픽로 101,37.5120841,127.0821495
삼전지구대,서울특별시 송파구  백제고분로 238,37.5027107,127.0927721
가락지구대,서울특별시 송파구  중대로 179,37.4979534,127.124438
문정지구대,서울특별시 송파구 충민로2길 18,37.4782023,127.1269954
마천파출소,서울특별시 송파구  마천로 41길 8,37.4969882,127.1482966
거여파출소,서울특별시 송파구 새말로15길 9,37.4851827,127.128881
풍납파출소,서울특별시 송파구  토성로 64,37.5287255,127.1168629
오금파출소,서울특별시 송파구  마천로8길 17,37.5068859,127.1280993
신천파출소,서울특별시 송파구  올림픽로35길 12 ,37.5201652,127.1123922
위례파출소,서울특별시 송파구 위례순환로 369,37.4778753,127.1458547
당현지구대,서울특별시 노원구  노원로17길 64번지,37.6420263,127.0683655
월계지구대,서울특별시 노원구  월계로55길 58,37.6336663,127.0592758
화랑지구대,서울특별시 노원구  동일로 1034,37.6225423,127.0745497
노원역지구대,서울특별시 노원구 노원로431,37.6550066,127.0669434
불암지구대,서울특별시 노원구  한글비석로 277,37.6524287,127.0773287
마들지구대,서울특별시 노원구  한글비석로 489 마들지구대,37.6645128,127.0635938
당고개파출소,서울특별시 노원구  상계로35길 29(임시청사),37.6714827,127.0778607
상계1파출소,서울특별시 노원구  동일로 1693,37.6796671,127.0550431
남태령지구대,서울특별시 서초구  동작대로 34,37.4795145,126.982147
서래파출소,서울특별시 서초구  신반포로 16길 15-14,37.5015562,126.9980944
이수파출소,서울특별시 서초구  동광로19길 38,37.4941411,126.9888281
방배1파출소,서울특별시 서초구  효령로 31길 64,37.4839725,126.9953204
불광지구대,서울특별시 은평구  연서로 290,37.62146,126.9265859
연신내지구대,서울특별시 은평구  갈현로 195,37.6151923,126.9127048
진관파출소,서울특별시 은평구  진관3로 38 진관파출소,37.6367356,126.9183299
대조파출소,서울특별시 은평구  통일로 737,37.6111425,126.9289875
창동지구대,서울특별시 도봉구 노해로 392,37.6522878,127.0517221
신창파출소,서울특별시 도봉구  도봉로104길 49-5,37.6435218,127.0345748
방학파출소,서울특별시 도봉구  도봉로145길 45 방학파출소,37.6644651,127.0399956
신방학파출소,서울특별시 도봉구  시루봉로5길 10,37.6585014,127.0271436
도봉1파출소,서울특별시 도봉구  도봉로169길 43 도봉1파출소,37.679666,127.043351
도봉2파출소,서울특별시 도봉구 도봉로 180나길 33,37.6839868,127.0492833
쌍문파출소,서울특별시 도봉구  방학로3길 132,37.6575676,127.0380293
숭미파출소,서울특별시 도봉구  노해로 139 숭미파출소,37.6474873,127.0255867
도곡지구대,서울특별시 강남구  언주로 426,37.5055798,127.0414738
대치지구대,서울특별시 강남구  삼성로 203,37.4947493,127.0624809
수서파출소,서울특별시 강남구  밤고개로1길 48,37.4891379,127.1047973
대왕파출소,서울특별시 강남구  헌릉로 623,37.4651386,127.107375
일원지구대,서울특별시 강남구  일원로3길 35 일원파출소,37.4923791,127.083378
개포지구대,서울특별시 강남구  개포로 261(1268),37.4806165,127.0501493
남포지구대,부산광역시 중구  해관로 19,35.1005387,129.0355547
영주파출소,부산광역시 중구  동영로 77,35.111902,129.0321898
부평파출소,부산광역시 중구  보수대로44번길 27,35.1029595,129.0237823
보수파출소,부산광역시 중구  흑교로 77,35.105969,129.023374
대청파출소,부산광역시 중구  중구로 103-1,35.1058671,129.0313789
내성지구대,부산광역시 동래구  동래로 109,35.2067636,129.0855541
충렬지구대,부산광역시 동래구  반송로 207,35.1996163,129.0971598
온천지구대,부산광역시 동래구  우장춘로 16,35.2091901,129.0703808
사직지구대,부산광역시 동래구  중앙대로1277번길 41,35.2007338,129.0755672
온천3파출소,부산광역시 동래구  석사북로 93,35.2057406,129.0660807
낙민파출소,부산광역시 동래구  온천천로 359,35.1937609,129.0925243
동삼지구대,부산광역시 영도구  태종로 618 동삼지구대,35.0783442,129.0732834
영선지구대,부산광역시 영도구  남항시장길 328,35.0877281,129.0429078
청학파출소,부산광역시 영도구  태종로 395,35.0919405,129.0662005
대교파출소,부산광역시 영도구  태종로 81(대교동2가),35.0919968,129.0410363
초량지구대,부산광역시 동구  초량상로 65번길2,35.1178487,129.0375185
수성지구대,부산광역시 동구  망양로 811,35.1348389,129.0435549
자성대파출소,부산광역시 동구  자성공원로 15,35.137404,129.0612447
좌천파출소,부산광역시 동구  중앙대로 491-4,35.1374772,129.0558825
범곡파출소,부산광역시 동구  범상로 10-1,35.1412686,129.0491718
양정지구대,부산광역시 부산진구  동평로 342,35.1744657,129.0625562
부전지구대,부산광역시 부산진구  부전로 185,35.1638184,129.0610996
서면지구대,부산광역시 부산진구  신암로 56,35.1470907,129.0554871
당감지구대,부산광역시 부산진구  당감로 17-1,35.1634992,129.0392312
성지지구대,부산광역시 부산진구  성지로113번길 27,35.1790052,129.051658
가야지구대,부산광역시 부산진구  가야공원로 10,35.1524741,129.0295135
부암지구대,부산광역시 부산진구  신천대로 283,35.1671938,129.0501345
범천1파출소,부산광역시 부산진구  중앙번영로 10,35.1447882,129.0602341
전포파출소,부산광역시 부산진구  전포대로 165,35.1514351,129.0650138
개금파출소,부산광역시 부산진구 백양대로208번길 137,35.1623735,129.0233559
송도지구대,부산광역시 서구 충무대로 84,35.0794048,129.0214779
구덕지구대,부산광역시 서구  보수대로 258-5,35.117078,129.0173717
충무지구대,부산광역시 서구  임시수도기념로 36,35.1034934,129.01796
아미파출소,부산광역시 서구  해돋이로 267,35.1003141,129.0161619
문현지구대,부산광역시 남구  전포대로 20번길 47,35.1389438,129.0697772
용호지구대,부산광역시 남구  분포로 1,35.1253732,129.1123906
대연지구대,부산광역시 남구  수영로 328,35.1378957,129.1019322
광남지구대,부산광역시 수영구  수영로554번길 52,35.1543621,129.115212
광민지구대,부산광역시 수영구  광안해변로295번길 22,35.1572837,129.1254038
못골파출소,부산광역시 남구 진남로 46번길 37,35.1397131,129.0901144
우암파출소,부산광역시 남구  우암로 170,35.1246395,129.0782239
용당파출소,부산광역시 남구 신선로 318,35.1145458,129.0957131
감만파출소,부산광역시 남구 우암로86,35.1182007,129.0807876
재송지구대,부산광역시 해운대구 해운대로161번길 17,35.1839301,129.1235073
우동지구대,부산광역시 해운대구  해운대로 398,35.167978,129.1394227
중동지구대,부산광역시 해운대구  좌동순환로433번길 32,35.1616801,129.1790965
좌동지구대,부산광역시 해운대구  좌동순환로 185,35.1778667,129.1764064
반여지구대,부산광역시 해운대구  선수촌로21번길 64,35.1974453,129.1179505
송정파출소,부산광역시 해운대구  송정중앙로8번길 65,35.1806791,129.2004765
반석파출소,부산광역시 해운대구  아랫반송로 6,35.2254517,129.1468014
반송파출소,부산광역시 해운대구  신반송로 177,35.2290271,129.1602371
반여2·3파출소,부산광역시 해운대구  재반로 197,35.1948888,129.1304287
주례지구대,부산광역시 사상구  주례로 141,35.14575,129.0009577
학장파출소,부산광역시 사상구  학감대로 123번길 4,35.1420014,128.9877653
감전지구대,부산광역시 사상구  가야대로 39,35.1519031,128.9772208
모라파출소,부산광역시 사상구  모라로 110번길 101,35.1846554,128.9963468
삼덕파출소,부산광역시 사상구  삼덕로 73번길 48,35.1752733,128.9851348
엄궁파출소,부산광역시 사상구 낙동대로 740,35.1271976,128.9693434
부곡지구대,부산광역시 금정구  부곡로 136 (부곡동) 부곡지구대,35.2279936,129.0922775
장전지구대,부산광역시 금정구  금정로 49 (장전동) 장전지구대,35.2290759,129.0859948
범어지구대,부산광역시 금정구  팔송로39길 56 (남산동) 범어지구대,35.2696244,129.0881329
서금지구대,부산광역시 금정구  반송로 482-1 (금사동) 서금지구대,35.2161659,129.1164974
팔송파출소,부산광역시 금정구  중앙대로 2106 (청룡동) 팔송파출소,35.2723742,129.0929384
괴정지구대,부산광역시 사하구  낙동대로 264,35.0994409,128.9882447
하단지구대,부산광역시 사하구  하신중앙로 316,35.1044579,128.9652204
감천지구대,부산광역시 사하구  감천로103,35.08826,129.0032093
다대지구대,부산광역시 사하구  다송로 46,35.0635295,128.9824223
신평파출소,부산광역시 사하구  하신중앙로 171,35.0936034,128.9620472
장림파출소,부산광역시 사하구  다대로 239,35.0810948,128.9777483
토곡지구대,부산광역시 연제구 과정로164번길 16,35.1859181,129.1082422
연일지구대,부산광역시 연제구 반송로 18,35.1868347,129.0831004
거제지구대,부산광역시 연제구 거제대로178번길 51-1,35.1840654,129.0731294
연산파출소,부산광역시 연제구 연수로 207-1,35.17396,129.0934777
망미1파출소,부산광역시 수영구 망미로8번길 74,35.1726746,129.1011889
수영망미2파출소,부산광역시 수영구 수영성로 36-1 (수영동),35.1705061,129.1159975
가락파출소,부산광역시 강서구  가락대로 1465,35.19494,128.9021286
강동파출소,부산광역시 강서구  제도로 1191,35.2161607,128.9366836
대저파출소,부산광역시 강서구  대저로 284,35.2119708,128.9827889
공항파출소,부산광역시 강서구  공항진입로 39,35.1811355,128.9541782
녹산파출소,부산광역시 강서구  낙동남로604번길 2-17,35.112723,128.8862137
신호파출소,부산광역시 강서구 녹산산단335로 12-22,35.0898879,128.8564112
명지파출소,부산광역시 강서구  명지국제2로28번길 13,35.0938632,128.9086888
가덕도파출소,부산광역시 강서구 동선길 134,35.0528752,128.8309577
지사파출소,부산광역시 강서구 과학산단2로20번길 7-20,35.1511108,128.8322268
덕천지구대,부산광역시 북구  금곡대로 66-8,35.2155589,129.0051495
구포지구대,부산광역시 북구  시랑로79번길 3,35.198839,129.0061967
만덕지구대,부산광역시 북구  은행나무로36번가길 24,35.2055526,129.0391718
화명지구대,부산광역시 북구  용당로 6,35.2318431,129.0097615
금곡파출소,부산광역시 북구  금곡대로 462,35.2496191,129.0130969
기장지구대,부산광역시 기장군 기장읍 차성동로 94-6 ,35.2459044,129.2174833
일광파출소,부산광역시 기장군 일광면 일광로 77-15 ,35.2641744,129.2324098
장안파출소,부산광역시 기장군 장안읍 해맞이로 5 ,35.3129102,129.2442872
정관지구대,부산광역시 기장군 정관읍 용수로 17 ,35.3248144,129.1788774
철마파출소,부산광역시 기장군 철마면 철마로 473 ,35.2749142,129.1487083
서문지구대,대구광역시 중구  국채보상로 99길 12,35.8712556,128.5838659
동덕지구대,대구광역시 중구 국채보상로 140길 16,35.868083,128.6060433
남산지구대,대구광역시 중구  달구벌대로 2048,35.8660179,128.587629
중앙파출소,대구광역시 중구  중앙대로 81길 88,35.8695864,128.5888258
큰고개지구대,대구광역시 동구  효목로19길 143,35.8832147,128.6368871
동촌지구대,대구광역시 동구  해동로 184,35.8865157,128.6488829
안심지구대,대구광역시 동구  반야월로 219,35.8724847,128.7127274
남신암지구대,대구광역시 동구  대현로 126 ,35.8813318,128.6124104
동대구지구대,대구광역시 동구  동대구로85길 53 ,35.8749697,128.6243127
팔공파출소,대구광역시 동구 팔공로 197길 47,35.9564465,128.6910226
공산파출소,대구광역시 동구 파계로 546,35.9791999,128.6331759
봉무불로파출소,대구광역시 동구 위남로9,35.9272924,128.6399034
동내혁신파출소,대구 동구 동내로 120,35.8818552,128.733863
평산지구대,대구광역시 서구  달서로26길 1,35.8733781,128.5714877
서도지구대,대구광역시 서구  국채보상로 260,35.871043,128.5595123
이현지구대,대구광역시 서구  국채보상로 117,35.8690137,128.5439926
비원지구대,대구광역시 서구  고성로 83,35.8836122,128.5754526
내당4동파출소,대구광역시 서구  달구벌대로 1737,35.8573471,128.555168
봉천지구대,대구광역시 남구  봉덕로 87,35.8449918,128.6001903
동대명지구대,대구광역시 남구  양지로 100,35.8512762,128.579126
서대명파출소,대구광역시 남구 대명남로 177,35.8357444,128.5775364
대명파출소,대구광역시 남구  두류공원로 113,35.8461571,128.5672641
남대명파출소,대구광역시 남구  대명남로 55,35.8351142,128.5642848
노원지구대,대구광역시 북구  오봉로 122,35.8981372,128.5795509
복현지구대,대구광역시 북구  경진로1길 50,35.8941604,128.617994
고성지구대,대구광역시 북구  침산로 24,35.8783946,128.5892545
산격지구대,대구광역시 북구  연암로 114,35.8944092,128.5949132
고산지구대,대구광역시 수성구  고산로 150,35.8443327,128.7065156
황금지구대,대구광역시 수성구  청수로 245,35.8411515,128.6347776
만촌지구대,대구광역시 수성구  무열로 111,35.8684565,128.6487278
상동지구대,대구광역시 수성구  들안로 54,35.8346143,128.6173114
지산지구대,대구광역시 수성구  지범로 155,35.8232799,128.6373404
범어지구대,대구광역시 수성구  동대구로 313,35.858588,128.6251264
파동파출소,대구광역시 수성구  파동로 2길 30,35.8086055,128.6215733
월배지구대,대구광역시 달서구  월배로 108,35.8141777,128.5265601
상인지구대,대구광역시 달서구  상인서로 36,35.8139956,128.5451928
송현지구대,대구광역시 달서구  학산로 184,35.8336777,128.5466399
월성파출소,대구광역시 달서구  월성로 69,35.8307807,128.5281349
대곡파출소,대구광역시 달서구  갈밭로 51,35.8030751,128.5287758
신당지구대,대구광역시 달서구  선원로 62,35.8588184,128.4990784
죽전파출소,대구광역시 달서구  용산로 212,35.8564809,128.5308505
성당파출소,대구광역시 달서구  구마로39길 83-16,35.8412279,128.5470251
두류3동파출소,대구광역시 달서구  야외음악당로 202,35.8532682,128.5577279
성서파출소,대구광역시 달서구  달구벌대로 1327,35.8511159,128.5124859
용산파출소,대구광역시 달서구  선원로 276,35.8584927,128.5226683
두류파출소,대구광역시 달서구  야외음악당로 280,35.8565163,128.5647098
감삼파출소,대구광역시 달서구  달구벌대로 1606,35.851737,128.5423191
가창파출소,대구광역시 달성군 가창면 가창로 1076,35.8000754,128.6231302
공단파출소,대구광역시 달성군 논공읍 논공중앙로33길 7,35.7303648,128.4518596
논공파출소,대구광역시 달성군 논공읍 비슬로 1788,35.7743153,128.4208439
구지파출소,대구광역시 달성군 구지면 창리로11길 51,35.6598709,128.4114688
화남파출소,대구광역시 달성군 화원읍 비슬로 2480,35.7987457,128.489894
화원파출소,대구광역시 달성군 화원읍 명천로 100,35.8025315,128.5070956
옥포파출소,대구광역시 달성군 옥포읍 비슬로 2294 ,35.790592,128.4720233
다사지구대,대구광역시 달성군 다사읍 세천로 100 ,35.8733357,128.4729641
현풍파출소,대구광역시 달성군 현풍읍 현풍중앙로 70,35.695736,128.4438606
유가파출소,대구광역시 달성군 유가읍 테크노상업로 99,35.6938583,128.4591474
하빈파출소,대구광역시 달성군 하빈면 달구벌대로 55길 58-4,35.8765617,128.421798
동천지구대,대구광역시 북구  구암로 157,35.9318866,128.5580312
강북지구대,대구광역시 북구  동암로 171 ,35.9436296,128.5696827
무태파출소,대구광역시 북구  서변로 62,35.9210966,128.5968548
관문파출소,대구광역시 북구 한강로 103,35.8964015,128.5210274
신흥지구대,인천광역시 중구  서해대로 399,37.4623941,126.6319467
송림지구대,인천광역시 동구  송림로 46-1,37.4738076,126.6403363
하인천지구대,인천광역시 중구  제물량로 266,37.4754698,126.6176157
공항지구대,인천광역시 중구  흰바위로27번길 12,37.49351,126.4884347
연안파출소,인천광역시 중구  연안부두로 22 ,37.4561542,126.6029156
영흥파출소,인천광역시 옹진군 영흥면 영흥북로 29,37.2560204,126.4991746
북도파출소,인천광역시 옹진군 시도로 61번길 91,37.5336549,126.4269538
대청파출소,인천광역시 옹진군 대청로 7번길 9,37.8243223,124.7179705
연평파출소,인천광역시 옹진군 연평면 연평로137번길 5,37.659714,125.7034543
백령파출소,인천광역시 옹진군 백령면 백령로278번길 57,37.9737087,124.7209472
덕적파출소,인천광역시 옹진군 덕적면 덕적북로 117번길,37.2266921,126.1454627
용유파출소,인천광역시 중구 마시란로 314-20 ,37.4446247,126.4013034
송현파출소,인천광역시 동구  수문통로 77,37.4821695,126.6369959
동인천파출소,인천광역시 중구  참외전로 131,37.4748473,126.6320526
서흥파출소,인천광역시 동구  샛골로 195 ,37.4798921,126.6452086
영종지구대,인천광역시 중구 하늘달빛로 118,37.488725,126.5550729
학동지구대,미추홀구 인하로 150-1,37.448929,126.6646364
숭의지구대,용현동 488-109,37.4576336,126.6460186
도화지구대,인천 미추홀구 숙골로87번길 22,37.4699603,126.6611371
주안역지구대,인천광역시 미추홀구 주안로 71,37.4644396,126.6776861
주안지구대,미추홀구 인하로 448번지,37.4444202,126.6964633
문학지구대,인천 미추홀구 소성로 340,37.437273,126.6849973
주안2파출소,인천 미추홀구 인하로 196,37.448489,126.6696456
용오파출소,미추홀구 용오로 24,37.4557823,126.6380235
석암파출소,경인로 455-1,37.4582435,126.6905809
만수지구대,인천광역시 남동구 만수서로68,37.4614729,126.7336731
구월지구대,인천광역시 남동구 인하로 623,37.443134,126.7160597
간석지구대,인천광역시 남동구 석산로176,37.4588566,126.7105985
정각지구대,인천광역시 남동구 용천로74,37.456043,126.7150385
간석4파출소,인천광역시 남동구 석정로552번길7,37.4656121,126.697118
구월3파출소,인천광역시 남동구 문화서로49번길 16,37.449846,126.6954283
철마지구대,인천광역시 부평구 마장로251,37.5004886,126.7024718
동암지구대,인천광역시 부평구 배곶로 50 ,37.472611,126.6969073
역전지구대,인천광역시 부평구 광장로 6,37.4956127,126.7260553
백운파출소,인천광역시 부평구 마장로 84,37.4862487,126.7081914
청천지구대,인천광역시 부평구 안남로 307,37.510476,126.7091067
부평2파출소,인천광역시 부평구 부영로 7,37.4859999,126.7177842
검단지구대,인천광역시 서구 완정로 181,37.6024007,126.6561677
서곶지구대,인천광역시 서구  승학로402번길 ,37.5579979,126.6756419
가좌지구대,인천광역시 서구 원적로 59,37.4923004,126.680054
석남지구대,인천광역시 서구  가정로294번길 23,37.511124,126.6753177
청라지구대,인천광역시 서구  청라라임로 66,37.533365,126.6536783
가석파출소,인천광역시 서구  서달로 121 ,37.5094672,126.6783993
불로지구대,인천광역시 서구  검단로 755 번길 9,37.6131039,126.6833444
가정지구대,인천광역시 서구 가정로406번길 25,37.5208698,126.6751807
계산지구대,인천광역시 계양구  오조산로 43 ,37.5347653,126.7383077
효성지구대,인천광역시 계양구  안남로554번길 31 ,37.5325147,126.7142082
계양산지구대,인천광역시 계양구  계양산로 92,37.5475604,126.7259343
장기파출소,인천광역시 계양구  장기서로 6 ,37.5766637,126.7346764
계산1파출소,인천광역시 계양구  계산천동로19번길 14 ,37.5391258,126.7257936
송해파출소,인천광역시 강화군 송해면 강화대로 691 ,37.7627554,126.4647447
길상파출소,인천광역시 강화군 길상면 온수길36번길 7 ,37.6409419,126.4911114
삼산파출소,인천광역시 강화군 삼산면 삼산북로 465,37.7045045,126.3216159
교동파출소,인천광역시 강화군 교동면 대룡안길54번길 14,37.7814379,126.281189
서도파출소,인천광역시 강화군 서도면 주문도길 58,37.6516456,126.2396274
불은파출소,인천광역시 강화군 불은면 강화동로 558 ,37.6862848,126.4796241
화도파출소,인천광역시 강화군 화도면 마니산로732,37.6337026,126.4173461
양도파출소,인천광역시 강화군 양도면 강화남로 722 ,37.6643718,126.4207364
내가파출소,인천광역시 강화군 내가면 강화서로 243,37.7185656,126.3894697
심도지구대,인천광역시 강화군 강화읍 동문안길 17,37.7487852,126.4859711
선원파출소,인천광역시 강화군 선원면 대문고개로 4,37.7121399,126.4835076
양사파출소,인천광역시 강화군 양사면 전망대로 1381-3,37.7992331,126.4061169
하점파출소,인천광역시 강화군 하점면 강화대로 1186,37.7734865,126.4140784
연수지구대,인천광역시 연수구  함박뫼로 11-8 ,37.4187502,126.6709358
동춘지구대,인천광역시 연수구  먼우금로45번길 5 ,37.4029358,126.6692666
송도국제도시지구대,인천광역시 연수구  해돋이로 96,37.3910853,126.651617
송도국제도시2지구대,인천광역시 연수구 송도과학로51번길 70,37.3867867,126.669318
옥련지구대,인천광역시 연수구 비류대로 215,37.4277964,126.6589866
선학파출소,인천광역시 연수구  선학로 58 ,37.4226933,126.701244
갈산지구대,인천광역시 부평구 굴포로 7번길 43,37.5135589,126.723285
부흥지구대,인천광역시 부평구  부개로 4번길,37.4976975,126.7397074
중앙지구대,인천광역시 부평구  주부토로 10,37.4961236,126.7237981
부개파출소,인천광역시 부평구 일신로 31,37.482169,126.7460064
부개2파출소,인천광역시 부평구  충선로 49번길 ,37.4955263,126.7351617
만월지구대,인천광역시 남동구 장승남로47번길 7,37.4437928,126.737256
논현지구대,인천광역시 남동구 앵고개로 797,37.3935698,126.7237058
남동산단파출소,인천광역시 남동구 남동대로239번길 112,37.4093705,126.6935915
서창지구대,인천광역시 남동구 독곡로 30,37.4355192,126.7475687
수완지구대,광주광역시 광산구  수완로 63,35.1910266,126.8284676
첨단지구대,광주광역시 광산구  첨단중앙로106번길 65-15,35.2162971,126.8465452
우산지구대,광주광역시 광산구 사암로 106번길 3,35.1538575,126.8077236
월곡지구대,광주광역시 광산구  사암로 390번길 13-16,35.1794742,126.8091569
도산파출소,광주광역시 광산구  상무대로 93,35.1289813,126.7854723
송정파출소,광주광역시 광산구  신흥신기안길 31-6,35.1447209,126.8030243
하남파출소,광주광역시 광산구  고봉로 124,35.1847109,126.794558
비아파출소,광주광역시 광산구  비아중앙로31번길 14,35.2216304,126.8238067
평동파출소,광주광역시 광산구  평동로 790-16,35.1242015,126.7597935
동곡파출소,광주광역시 광산구  동곡로 155,35.0975116,126.7739434
삼도파출소,광주광역시 광산구  삼도로 341-3,35.1632571,126.7004686
본량파출소,광주광역시 광산구  용진로 395,35.1814684,126.7304954
임곡파출소,광주광역시 광산구  하림길 1,35.2197806,126.7451439
금남지구대,광주광역시 동구  예술길 31-5,35.1495409,126.9195361
학서파출소,광주광역시 동구  양림로 119 번길 13,35.1408572,126.9199455
산수파출소,광주광역시 동구  필문대로 157,35.1566128,126.9319251
지원파출소,광주광역시 동구  남문로 570 ,35.1220477,126.93345
지산파출소,광주광역시 동구  지호로 131,35.1494398,126.9427837
금호지구대,광주광역시 서구  운천로 30,35.1352905,126.8594103
상무지구대,광주광역시 서구  상무연하로 106,35.1577835,126.850481
화정지구대,광주광역시 서구  화운로 160,35.1531314,126.8769416
농성파출소,광주광역시 서구  화정로 316,35.1504402,126.8903296
동천파출소,광주광역시 서구  유림로98번길 6,35.1709662,126.8644059
염주파출소,광주광역시 서구  염화로134번길 84,35.1415824,126.8792256
풍암파출소,광주광역시 서구  풍암1로 33,35.1243691,126.8788038
백운지구대,광주광역시 남구  월산로 30 ,35.1411102,126.9005689
방림지구대,광주광역시 남구  대남대로149번길 8,35.1329835,126.9086578
효덕지구대,광주광역시 남구  화산로 27,35.1120645,126.8997198
양림파출소,광주광역시 남구  천변좌로 410 ,35.1429586,126.915238
주월파출소,광주광역시 남구  회재로1217번길 7,35.133946,126.8934809
대촌파출소,광주광역시 남구  고싸움로 136,35.0802465,126.8345978
우산지구대,광주광역시 북구  중문로 63,35.178299,126.919878
동운지구대,광주광역시 북구  북문대로 240,35.1871401,126.866138
두암지구대,광주광역시 북구  군왕로 146,35.1742118,126.9331483
용봉지구대,광주광역시 북구  문화소통로 78,35.18344,126.9025027
일곡지구대,광주광역시 북구  설죽로 489,35.203009,126.8981784
문흥지구대,광주광역시 북구  대천로 146,35.187036,126.9214481
역전지구대,광주광역시 북구  태봉로 57,35.1625665,126.9050891
건국지구대,광주광역시 북구  본촌마을길102번길 17,35.2186615,126.8797579
석곡파출소,광주광역시 북구  동문대로 642 ,35.2138774,126.9487651
남대전지구대,대전광역시 중구  보문로 162번길 22,36.3180217,127.4269479
서대전지구대,대전광역시 중구  중앙로 14,36.3225203,127.4140397
유등지구대,대전광역시 중구 문화로 115-2,36.3127923,127.3984402
문화지구대,대전광역시 중구 보문산로 193,36.3060962,127.4019072
선화파출소,대전광역시 중구 우암로 14-1,36.3341042,127.421213
중촌파출소,대전광역시 중구  대종로 661-1,36.3390919,127.412524
용전지구대,대전광역시 동구  동서대로1695번길 54,36.3519015,127.4369479
대전역지구대,대전광역시 동구  역전시장길 7,36.3308244,127.4341417
가양지구대,대전광역시 동구  우암로 304,36.3467265,127.4492489
천동파출소,대전광역시 동구  대전로 501,36.3098657,127.4488064
판암파출소,대전광역시 동구  옥천로 403,36.3306605,127.4742907
산내파출소,대전광역시 동구  산내로 1332,36.2822433,127.4674958
도마지구대,대전광역시 서구  계백로 1366,36.3102496,127.3739411
내동지구대,대전광역시 서구  갈마로 246,36.333215,127.3810129
구봉지구대,대전광역시 서구  관저로 65,36.2991596,127.3289964
가수원지구대,대전광역시 서구  용소로40번길 7,36.3089524,127.3523252
신탄진지구대,대전광역시 대덕구  대덕대로 1427,36.4469908,127.4127851
중리지구대,대전광역시 대덕구  한밭대로 1084,36.3583427,127.4188732
송촌지구대,대전광역시 대덕구  동춘당로 63,36.3633755,127.4422244
회덕파출소,대전광역시 대덕구  대전로 1386,36.3772419,127.4213833
둔산지구대,대전광역시 서구 둔산남로 9번길 21,36.3489122,127.3779787
갈마지구대,대전광역시 서구 신갈마로 211,36.3526574,127.3683133
월평지구대,대전광역시 서구 청사로 27-7,36.3601593,127.3668824
청사지구대,대전광역시 서구 청사로 277,36.3599547,127.3946686
유성지구대,대전광역시 유성구  문화원로 136,36.3581,127.3507036
도룡지구대,대전광역시 유성구  가정로 318,36.3853872,127.3781009
노은지구대,대전광역시 유성구  은구비로 72,36.3758376,127.3230673
신성지구대,대전광역시 유성구 신성로 71,36.3898372,127.3485073
복용파출소,대전광역시 유성구 복용북로75번길 19,36.3432457,127.316091
구즉지구대,대전광역시 유성구 구룡달전로 21,36.4399981,127.3837348
진잠파출소,대전광역시 유성구  원내동 95,36.3027071,127.3207432
태화지구대,울산광역시 중구 종가5길 55,35.5599693,129.2972586
학성지구대,울산광역시 중구 학산로 7,35.555936,129.3296397
병영지구대,울산광역시 중구 병영성7길 11,35.5791474,129.3460193
반구파출소,울산광역시 중구 반구정10길 4,35.5560289,129.3414071
성안파출소,울산광역시 중구 성안로 257,35.5809274,129.3228572
신정지구대,울산광역시 남구 돋질로 118,35.5393651,129.3185637
삼산지구대,울산광역시 남구 번영로 217,35.5443855,129.3245768
야음지구대,울산광역시 남구 수암로 277,35.5221314,129.3353379
옥동지구대,울산광역시 남구 대공원입구로21번길 16,35.5342512,129.2925377
무거지구대,울산광역시 남구 신복로22번길 22,35.5506685,129.2600095
본동파출소,울산광역시 남구 화합로194번길 17,35.5420747,129.3413943
방어진지구대,울산광역시 동구 월봉12길 77,35.4910648,129.4212004
전하지구대,울산광역시 동구 진성4길 20,35.5090361,129.4285907
남목파출소,울산광역시 동구 동해안로 54,35.5420497,129.4291031
서부파출소,울산광역시 동구 방어진순환도로 961,35.5270287,129.4329534
화봉파출소,울산광역시 북구 화봉로 83,35.588553,129.368167
명촌지구대,울산광역시 북구 명촌21길14,35.557007,129.3545593
농소1파출소,울산광역시 북구 호계로 194,35.6216377,129.3558644
농소3파출소,울산광역시 북구 아진로 74,35.6300792,129.340641
양정파출소,울산광역시 북구 염포로 549,35.5423782,129.3854784
강동파출소,울산광역시 북구 강동산하13로 37,35.626942,129.4419191
서생파출소,울산광역시 울주군 서생면 해맞이로 867,35.3480934,129.3229429
범서파출소,울산광역시 울주군 범서읍 대리로 12,35.5714776,129.2440168
언양파출소,울산광역시 울주군 언양읍 남천둑길 7,35.5597213,129.1330378
온양파출소,울산광역시 울주군 온양읍 남창2길 30,35.4171888,129.2823176
온산파출소,울산광역시 울주군 온산읍 덕신로 229,35.4339221,129.3067202
두동파출소,울산광역시 울주군 두동면 대밀길 25,35.6547126,129.2014195
상북파출소,울산광역시 울주군 상북면 상북로 294,35.5909819,129.0897738
삼남파출소,울산광역시 울주군 삼남면 중남로 47,35.5358784,129.1073669
청량파출소,울산광역시 울주군 청량읍 온산로 767,35.4954278,129.3055659
웅촌파출소,울산광역시 울주군 웅촌면 곡천검단로 15,35.4634974,129.2059117
금남파출소,세종특별자치시  금남면 용포로 62,36.4640533,127.2811308
한솔지구대,세종특별자치시   노을3로 31,36.4802582,127.2590328
아름지구대,세종특별자치시   보듬3로 113,36.5114193,127.2470373
보람지구대,세종특별자치시 남세종로 440,36.4777891,127.2910012
조치원지구대,세종특별자치시  조치원읍 새내로 140,36.6043732,127.2978962
연동파출소,세종특별자치시  부강면 청연로 606-1,36.5310504,127.3649098
전의파출소,세종특별자치시  전의면 만세길 6 ,36.6790191,127.2033888
전동파출소,세종특별자치시  전동면 하노장4길 9,36.6558682,127.2649712
부강파출소,세종특별자치시  부강면 부강신대길 72-2,36.5309189,127.3644578
장안문지구대,경기도 수원시 장안구 송정로 113,37.2957606,127.0095424
노송지구대,경기도 수원시 장안구 이목로 58,37.3104042,126.9879953
화서문지구대,경기도 수원시 팔달구 수성로182번길 3,37.2867914,126.9931645
창룡문지구대,경기도 수원시 장안구 경수대로 758,37.2910967,127.0219435
동부파출소,경기도 수원시 팔달구 경수대로 621,37.2809348,127.0296476
율천파출소,경기도 수원시 장안구 서부로 2124,37.2979958,126.9716698
행궁파출소,경기도 수원시 찰달구 창룡대로 48,37.2830176,127.0213503
인계지구대,경기 수원시 팔달구 장다리로 312,37.2757403,127.0313965
산남지구대,경기 수원시 영통구 매영로 93-18,37.2686813,127.0530505
곡선지구대,경기 수원시 권선구 권중로77,37.2518693,127.0299492
영통지구대,경기 수원시 영통구 청명로 92,37.2548382,127.0778241
매탄지구대,경기 수원시 팔달구 동수원로 403,37.2651598,127.0399537
세류지구대,경기 수원시 권선구 정조로 370,37.2427287,127.0152902
권선파출소,경기 수원시 권선로 699번길 24-23,37.2598463,127.0295473
태장파출소,경기 수원시 영통구 영통로 143,37.2403384,127.0554107
광교지구대,경기 수원시 영통구 에듀타운로 82,37.288623,127.0476734
매산지구대,경기도 수원시 팔달구 덕영대로 944,37.2661683,126.9998913
서호지구대,경기 수원시 권선구 여기산로 26번길 18-50,37.2811615,126.9821928
고색파출소,경기 수원시 권선구 서부로 1673,37.258604,126.972393
고등파출소,경기도 수원시 팔달구 고등동 고등로 50,37.2732509,127.0020574
호매실지구대,경기도 수원시 권선구 금곡동 금곡로 190,37.273166,126.9515809
유천파출소,경기도 수원시 팔달구 매교동 매산로 116번길 50,37.2691117,127.0143849
당수파출소,경기도 수원시 권선구 당진로 32번길 28-4,37.2917815,126.9418358
갈산지구대,경기도 안양시 동안구 흥안대로223번길 30-1,37.3763122,126.9662605
인덕원지구대,경기도 안양시 동안구 동편로 190,37.4061562,126.9701502
비산지구대,경기도 안양시 동안구 관악대로 125,37.3991061,126.9379791
범계지구대,경기도 안양시 동안구 경수대로508번길 17,37.3682153,126.9589008
평안지구대,경기도 안양시 동안구 평촌대로217번길 57,37.3898937,126.9528235
호계파출소,경기도 안양시 동안구 관평로138번길 43,37.3904497,126.9645147
명학지구대,경기도 안양시 만안구 안양로170번길 20,37.3896119,126.9305305
안양지구대,경기도 안양시 만안구 병목안로 56,37.3843031,126.9099767
석수지구대,경기도 안양시 만안구 경수대로 1161,37.4147206,126.9184247
박달지구대,경기도 안양시 만안구 박달로 492,37.4023466,126.9071554
군포지구대,경기도 군포시 군포로 511,37.352158,126.9445706
산본지구대,경기도 군포시 수리산로203번길 51,37.3678267,126.9266073
대야파출소,경기도 군포시 대야1로 24번길 4,37.3278416,126.9174709
금정파출소,경기도 군포시 군포로 683번길 31,37.3656266,126.9440364
송부파출소,경기도 군포시 번영로 6-4,37.3227775,126.9398482
수진지구대,성남시 수정구 모란로 1,37.4338666,127.1284047
신흥지구대,성남시 수정구 시민로 150,37.4415546,127.1440012
중앙파출소,성남시 수정구 수정로 145,37.4424594,127.1362195
산성파출소,성남시 수정구 수정남로 317,37.456229,127.1529286
단대파출소,성남시 수정구 단대로 15,37.4523093,127.1582709
수진1파출소,성남시 수정구 탄리로 21,37.4384844,127.1386379
태평4파출소,성남시 수정구 남문로 128,37.4479066,127.1409331
고등파출소,성남시 수정구 고등공원로 47,37.4297656,127.1003694
복정파출소,성남시 수정구 복정로 36,37.4561875,127.1275136
성남위례파출소,성남시 수정구 위례동로 135-2,37.4722918,127.149698
성호지구대,경기도 성남시 중원구 산성대로 190-6,37.436095,127.1399889
금광지구대,경기도 성남시 중원구 산성대로 408번길 26-1,37.4473422,127.1613425
대원파출소,경기도 성남시 중원구 둔촌대로 439,37.4329521,127.1657852
상대원2파출소,경기도 성남시 중원구 희망로 373,37.439162,127.1585775
은행파출소,경기도 성남시 중원구 은행로25번길 14,37.4555393,127.1653619
도촌파출소,경기도 성남시 중원구 도촌북로 43,37.4176208,127.1545914
야탑지구대,경기도 성남시 분당구 야탑로 76,37.4096498,127.1272948
서현지구대,경기도 성남시 분당구 중앙공원로31번길 30,37.3822602,127.1261855
금곡지구대,경기도 성남시 분당구 성남대로171번길 12,37.3515869,127.1073105
서판교파출소,경기도 성남시 분당구 운중로146번길 6,37.3908233,127.0790258
동판교파출소,경기도 성남시 분당구 동판교로266번길 24,37.4065239,127.1157964
수내파출소,경기도 성남시 분당구 불정로 253,37.3666764,127.1262475
구미파출소,경기도 성남시 분당구 구미로 107,37.3394246,127.1206683
송내지구대,경기도 부천시 성주로 147,37.4794604,126.7725817
소사지구대,경기도 부천시 경인로 363,37.4824545,126.7960303
범박지구대,경기도 부천시 범안로 131,37.4701455,126.8094364
기동순찰대기동순찰대,경기도 부천시 원미구 조마루로311번길 84,37.5021309,126.7772843
중앙지구대,경기도 부천시 장말로 337,37.4910193,126.7795917
중동지구대,경기도 부천시 석천로 203-16,37.5057808,126.762548
상동지구대,경기도 부천시 상일로 99,37.4917623,126.7533887
계남지구대,경기도 부천시 조마루로 252,37.4978205,126.7716015
원미지구대,경기도 부천시 원미로 149번길 4,37.4963573,126.7906124
역곡지구대,경기도 부천시 부일로711번길 29,37.4862029,126.8079261
약대지구대,경기도 부천시 중동로 388번길 6,37.5143607,126.7704117
내동지구대,경기도 부천시 오정구 신흥로 411(삼정동),37.5204457,126.7749203
원종지구대,경기도 부천시 오정구 소사로 778(원종동),37.5255595,126.8051737
고강파출소,경기도 부천시 오정구 역곡로 519(고강동),37.5309097,126.8157757
성곡파출소,경기도 부천시 오정구 삼작로352번길 42(여월동),37.5304772,126.7837191
철산지구대,"경기도 광명시 철산로29번길 16(철산동, 철산지구대)",37.477526,126.868851
하안지구대,"경기도 광명시 범안로 1027(하안동,하안지구대)",37.4615541,126.8772747
소하지구대,"경기도 광명시 금하로 500(소하동, 소하지구대)",37.4498765,126.888374
광명지구대,"경기도 광명시 오리로991번길 6(광명동, 광명지구대)",37.468906,126.848568
광남지구대,"경기도 광명시 광명로 772(광명동, 광남지구대)",37.468906,126.848568
일직파출소,"경기도 광명시 서독로418(일직동,일직파출소)",37.4152972,126.8688896
기동순찰대기동순찰대,경기도 안산시 단원구 화랑로 373,37.3216986,126.8288908
고잔파출소,경기도 안산시 단원구 화랑로 397,37.3221268,126.8315668
호수지구대,경기도 안산시 단원구 광덕2로 127,37.3102458,126.824761
와동파출소,경기도 안산시 단원구 선부로 323,37.343412,126.8289921
선부파출소,경기도 안산시 단원구 선부광장1로 150,37.3320104,126.8091631
선부2파출소,경기도 안산시 단원구 선여불로 19,37.3440489,126.8039322
선부3파출소,경기도 안산시 단원구 선삼로 2길 14-20,37.3449509,126.8126469
원곡파출소,경기도 안산시 단원구 원곡공원로30,37.3326502,126.794581
원선파출소,경기도 안산시 단원구 원선로33,37.3280871,126.7972615
공단파출소,경기도 안산시 단원구 동산로 29,37.3128866,126.7934064
대부파출소,경기도 안산시 단원구 대부중앙로 67,37.2450519,126.5825554
신길파출소,안산시 단원구 도일로 45,37.3344969,126.7838961
본오지구대,경기도 안산시 상록구 상록수로 12,37.3026621,126.8611454
사동지구대,경기도 안산시 상록구 석호로 175,37.2968418,126.8512778
본오1파출소,경기도 안산시 상록구 샘골로 11,37.2848926,126.8635235
부곡파출소,경기도 안산시 상록구 성호로 324,37.3316267,126.8608401
월피파출소,경기도 안산시 상록구 안산천서로 215,37.3331391,126.8463671
성포파출소,경기도 안산시 상록구 예술광장로 47,37.3270199,126.8473566
일동파출소,경기도 안산시 상록구 호동로 118,37.3126682,126.8643943
이동파출소,경기도 안산시 상록구 중보1길 35,37.3072168,126.8513589
반월파출소,경기도 안산시 상록구 건건로 47,37.3055098,126.9022661
팔곡파출소,경기도 안산시 상록구 소학길 8,37.2975817,126.8871927
수암파출소,경기도 안산시 상록구 수인로 2026,37.3640017,126.8764141
장곡지구대,경기도 시흥시 장곡로 54번길 25-14,37.3819771,126.7813541
옥구지구대,경기도 시흥시 정왕대로 118번길 1,37.3512111,126.7286623
정왕지구대,경기도 시흥시 정왕신길로 216,37.3487513,126.7410638
은행지구대,경기도 시흥시 은행로 148,37.4442678,126.7999241
군자파출소,경기도 시흥시 군자로 513,37.3443166,126.7853463
매화파출소,경기도 시흥시 매화로 36,37.4164195,126.8148773
신천파출소,경기도 시흥시 신천로 100번 안길 15,37.4375992,126.7868049
대야파출소,경기도 시흥시 중심상가로 271,37.340103,126.7436374
시화파출소,경기도 시흥시 중심상가로 271,37.340103,126.7436374
능곡파출소,경기도 시흥시 장현능곡로 211,37.3691006,126.8137918
목감파출소,경기도 시흥시 목감우회로 17-6,37.3815105,126.8582953
배곧지구대,경기도 시흥시 서울대학로 264번길 50,37.3665791,126.7289615
기동순찰대기동순찰대,경기도 평택시 평택로 55,36.9918775,127.0856163
평택지구대,경기도 평택시 중앙1로 23,36.998347,127.0856114
서정지구대,경기도 평택시 서정역로 34,37.0571166,127.0560659
팽성지구대,경기도 평택시 팽성읍 동서촌로 93,36.9647035,127.0624935
진위파출소,경기도 평택시 진위면 경기대로 1856,37.1101479,127.0635694
서탄파출소,경기도 평택시 서탄면 서탄로 280,37.1080715,127.0338516
포승파출소,경기도 평택시 포승읍 서동대로 1150,36.9823699,126.8820787
비전지구대,경기도 평택시 평택5로 189,36.9963042,127.102974
고덕지구대,경기도 평택시 고덕면 고덕여염9길 3,37.0404934,127.0496897
송탄지구대,경기도 평택시 탄현로 343,37.0829776,127.0565519
안중파출소,경기도 평택시 안중읍 현화중앙길 71,36.9850836,126.9205793
현덕파출소,경기도 평택시 현덕면 안현로 144,36.9647592,126.9186755
청북파출소,경기도 평택시 청북읍 청원로 45,37.0409025,126.9387047
오성파출소,경기도 평택시 오성면 숙성시장길 71,37.0089642,126.9855936
만호파출소,경기도 평택시 포승읍 평택항로 170,36.9742284,126.8437558
신장파출소,경기도 평택시 신서로65,37.0724045,127.051261
용이파출소,경기도 평택시 현신4길 8,36.9984509,127.139906
오산지구대,경기도 오산시 운암로 11,37.1473584,127.0759721
궐동지구대,경기도 오산시 오산로 371,37.1597292,127.0661476
중앙파출소,경기도 오산시 오산로 221,37.1467888,127.0681593
세교지구대,경기도 오산시 세마역로 5,37.1810856,127.0440188
남양파출소,화성시 남양시장로 47,37.209016,126.8146413
발안지구대,화성시 3.1만세로 1095,37.1319736,126.9074798
봉담지구대,봉담읍 와우로 15번길 17,37.2166226,126.9705484
매송파출소,화성시 매송면 화성로 2249,37.2499288,126.9119621
송산파출소,화성시 송산포도로 98,37.2141763,126.738133
서신파출소,화성시 서신면 매화1길31,37.1701856,126.70562
우정파출소,화성시 우정읍 조암남로 31,37.0841286,126.8185067
팔탄파출소,화성시 팔탄면 서촌길 9,37.1604611,126.9032542
비봉파출소,화성시 비봉면 양노로 56,37.236239,126.8676339
마도파출소,화성시 마도면 석교로 179,37.2062772,126.7744439
양감파출소,화성시 양감면 은행나무로 263,37.0815646,126.9448714
태안지구대,경기도 화성시 떡전골로 112-2,37.2083836,127.0333001
동탄지구대,경기도 화성시 노작로 226-1,37.20736,127.0773628
정남파출소,경기도 화성시 정남면 만년로 582,37.1647007,126.9901332
안용파출소,경기도 화성시 용주로 32번길 4,37.2058151,127.0133294
동탄2지구대,경기도 화성시 동탄영천로 70,37.2090142,127.1038049
반월파출소,경기도 화성시 영통로 27번길 25-19 ,37.2308177,127.0623576
동탄3지구대,경기도 화성시 왕배산길 6,37.1812878,127.122468
중앙지구대,경기도 용인시 처인구 금령로 18,37.2346173,127.1981991
구갈지구대,경기도 용인시 기흥구 관곡로 41,37.2832674,127.1105673
흥덕파출소,경기도 용인시 기흥구 흥덕2로 8번길 1,37.2733917,127.0738786
상갈파출소,경기도 용인시 기흥구 중부대로 380,37.2716244,127.109206
동백지구대,경기도 용인시 기흥구 동백6로 37,37.277508,127.1554388
고매파출소,경기도 용인시 기흥구 동탄기흥로 715,37.2232452,127.0990392
동부파출소,경기도 용인시 처인구 경안천로 16,37.2346276,127.2106939
포곡파출소,경기도 용인시 처인구 포곡로 278번길 3,37.2793858,127.2320863
모현파출소,경기도 용인시 처인구 모현읍 독점로 31-6,37.329454,127.2424977
양지파출소,경기도 용인시 처인구 양지로 165,37.234334,127.2868419
백암파출소,경기도 용인시 처인구 백암로 201번길 9,37.1645036,127.3739312
원삼파출소,경기도 용인시 처인구 원삼면 고당로 15번길 1,37.1649067,127.3111957
이동파출소,경기도 용인시 처인구 이동면 경기동로 688,37.1397072,127.196532
남사파출소,경기도 용인시 처인구 남사면 처인성로 185번길 13,37.1137751,127.1500276
보라파출소,경기도 용인시 기흥구 한보라 1로 42-3,37.2513816,127.1088066
서천파출소,경기도 용인시 기흥구 서천로 117번길 1,37.2375421,127.0731054
수지지구대,경기도 용인시 수지구 풍덕천로190번길 18,37.3249627,127.1019365
보정지구대,경기도 용인시 기흥구 보정로 110,37.3194689,127.1157701
상현지구대,경기도 용인시 수지구 심곡로 7,37.3061645,127.0755091
구성파출소,경기도 용인시 기흥구 구성로 68,37.2947156,127.1168853
신봉파출소,경기도 용인시 수지구 수지로 195,37.3186838,127.0830511
죽전지구대,경기도 용인시 수지구 현암로 22,37.3314814,127.1189954
곤지암파출소,경기도 광주시 곤지암읍 곤지암로 38,37.3497361,127.3426463
도척파출소,경기도 광주시 도척면 도척로 603,37.3001899,127.3313741
경안지구대,경기도 광주시 중앙로 137,37.4117188,127.2566228
남한산성파출소,경기도 광주시 중부면 남한산성로 757,37.4777653,127.1862413
초월파출소,경기도 광주시 초월읍 경충대로 1243,37.3857753,127.2884157
오포동부파출소,경기도 광주시 오포읍 오포로 869,37.3678201,127.2314468
퇴촌파출소,경기도 광주시 퇴촌면 광동로 45,37.4707874,127.3078441
태전파출소,경기도 광주시 태봉로 46,37.3894589,127.2294845
오포서부파출소,경기도 광주시 오포읍 오포로171번길 3,37.3470434,127.1827798
사우지구대,경기도 김포시 사우중로 35-5,37.6185098,126.7177465
장기지구대,경기도 김포시 청송로 36,37.6484365,126.6677854
양촌파출소,경기도 김포시 양곡1로 68번길 3,37.656899,126.6257461
통진파출소,경기도 김포시 통진읍 조강로 83,37.6922416,126.5976086
고촌파출소,경기도 김포시 고촌읍 신곡리 1250-1,37.5978768,126.7660762
대곶파출소,경기도 김포시 대곶면 율생로 72,37.6508744,126.58402
월곶파출소,경기도 김포시 월곶면 군하로 276번길 13,37.7166094,126.5521436
하성파출소,경기도 김포시 하성면 애기봉로 847,37.7198267,126.631744
김포T파출소,경기도 김포시 고촌읍 아라육로152번길 56,37.5992682,126.787678
풍무파출소,경기도 김포시 풍무동 154-6(풍무2지구),37.6070848,126.727993
마산지구대,경기도 김포시 김포한강8로 176(마산동),37.6379444,126.6446005
운양지구대,김포시 운양동 1421-1,37.6469434,126.67992
하남지구대,경기도 하남시 신장로 66,37.5356613,127.2102763
덕풍지구대,경기도 하남시 덕풍로81번길 13,37.5512115,127.2042983
서부파출소,경기도 하남시 감북로 43,37.5161605,127.162141
미사지구대,경기도 하남시 아리수로 567,37.567588,127.1899424
창우파출소,경기도 하남시 대청로 114,37.5392459,127.2247745
하남위례파출소,경기도 하남시 위례학암로14번길 20,37.4871001,127.1566177
과천지구대,과천시 관문로 136,37.4331513,126.9934535
별양지구대,과천시 별양로 58,37.4240914,126.9936646
의왕지구대,경기도 의왕시 경수대로 352,37.3568715,126.9680239
청계파출소,경기도 의왕시 안양판교로 227,37.3895043,126.9964005
부곡파출소,경기도 의왕시 한백이길 3,37.3223688,126.9489464
내손지구대,경기도 의왕시 갈미로 77,37.3787354,126.9757887
창전지구대,경기도 이천시 영창로 171,37.281743,127.4416627
아미파출소,경기도 이천시 부발읍 경충대로 2154,37.2573393,127.4862094
장호원파출소,경기도 이천시 장호원읍 장감로 70,37.1168404,127.6305088
부발파출소,경기도 이천시 부발읍 무촌로 167-5,37.2869536,127.488955
대월파출소,경기도 이천시 대월로803번길 64,37.2246835,127.4947082
마장파출소,경기도 이천시 마장면 오천로 101,37.2491513,127.3573905
신둔파출소,경기도 이천시 신둔면 경충대로 3162,37.3087107,127.4024566
모가파출소,경기도 이천시 모가면 진상미로 1305,37.1725146,127.4801599
백사파출소,경기도 이천시 백사면 현방로 62,37.3385253,127.4912364
설성파출소,경기도 이천시 설성면 설장로 17번길 6-1,37.1324627,127.5217918
호법파출소,경기도 이천시 호법면 이섭대천로 547,37.2241583,127.4282178
율면파출소,경기도 이천시 율면 고당로 144,37.0954845,127.5468694
증포지구대,경기도 이천시 증포동 갈산로 19,37.2895381,127.4552676
중앙지구대,경기도 안성시 석정1길 15,37.0095238,127.2620074
공도지구대,경기도 안성시 공도읍 공도4로 4,37.0007344,127.1727114
대덕파출소,경기도 안성시 대덕면 중앙로 78,37.012661,127.2374832
금광파출소,경기도 안성시 금광면 금광초교길 38,37.0010431,127.32278
보개파출소,경기도 안성시 보개면 보개원삼로 220-1,37.0225469,127.2900675
내리지구대,경기도 안성시 대학6길 34,37.0037427,127.2261944
원곡파출소,경기도 안성시 원곡면 가천중앙1길 44,37.0392361,127.1292948
양성파출소,경기도 안성시 양성면 장터길 35,37.0587584,127.1953228
일죽파출소,경기도 안성시 일죽면 주래본죽로 28,37.0936442,127.4775953
죽산파출소,경기도 안성시 죽산면 죽주로 241,37.0749287,127.422019
홍문지구대,경기도 여주시 세종로2,37.2975601,127.6368549
점동파출소,경기도 여주시 강천면 강문로 566,37.273646,127.7110405
가남파출소,경기도 여주시 가남읍 태평2길 23,37.203784,127.5454501
세종대왕파출소,경기도 여주시 점동면 청안로118,37.205011,127.6617115
흥천파출소,경기도 여주시 금사면 이포로 41,37.3931363,127.534185
금사파출소,경기도 여주시 흥천면 효자로 144,37.3326994,127.5425825
산북파출소,경기도 여주시 북내면 여양2로 300,37.3294058,127.6798
대신파출소,경기도 여주시 능서면 마장로 61,37.2983017,127.5796245
북내파출소,경기도 여주시 대신면 여양로 1436,37.3750904,127.5883713
강천파출소,경기도 여주시 산북면 금품1로 2,37.4047928,127.443671
오학파출소,경기도 여주시 현암동 217-7,37.3056097,127.6385563
양근지구대,경기도 양평군 양평읍 해오름길 11,37.4881923,127.4905344
강상파출소,경기도 양평군 강상면 양평대교길 91,37.4822465,127.4850012
강하파출소,경기도 양평군 강하면 운심길 46,37.4958985,127.4111794
용문파출소,경기도 양평군 용문면 용문역길 71,37.480538,127.5889026
지평파출소,경기도 양평군 지평면 지평의병로 91,37.4753148,127.6361834
단월파출소,경기도 양평군 단월면 재인동길 2-6,37.5329219,127.6743526
청운파출소,경기도 양평군 청운면 용두로 140,37.554172,127.7087583
양서파출소,경기도 양평군 양서면 양수로 152번길 6,37.5448397,127.319235
서종파출소,경기도 양평군 서종면 무내미길 45,37.6032733,127.3520094
옥천파출소,경기도 양평군 옥천면 옥천길 27,37.5184218,127.4569378
양동파출소,경기도 양평군 양동면 학둔지아래길 72,37.4204952,127.7529539
개군파출소,경기도 양평군 개군면 하자포길 25,37.4253672,127.5379149
금오지구대,경기도 의정부시  추동로108번길 1,37.7476095,127.0663411
신곡지구대,경기도 의정부시  경의로 119,37.7334074,127.0492518
가능지구대,경기도 의정부시  호국로 1171 ,37.7433083,127.0338124
송산지구대,경기도 의정부시  용민로 119,37.7399934,127.0901683
호원지구대,경기도 의정부시  평화로 159 ,37.7060536,127.0479069
녹양지구대,경기도 의정부시 체육로 260,37.758706,127.0313425
민락지구대,경기도 의정부시 민락로 356,37.7498838,127.1049225
화정지구대,경기도 고양시 덕양구 은빛로 80,37.6370957,126.8367206
행신지구대,경기도 고양시 덕양구 중앙로 541-18,37.6220994,126.8357586
원당지구대,경기도 고양시 덕양구 호국로 790번길 105,37.6542977,126.841638
신도지구대,경기도 고양시 덕양구 신도길 6,37.6529076,126.894011
고양파출소,경기도 고양시 덕양구 벽제관로 3,37.7033995,126.9039522
관산파출소,경기도 고양시 덕양구 통일로 782,37.6882356,126.8638927
행신3파출소,경기도 고양시 덕양구 중앙로558번길 90,37.6267726,126.8388467
화전파출소,경기도 고양시 덕양구 중앙로 219,37.6059829,126.8660516
도래울지구대,경기도 고양시 도내동 922-1,37.6253741,126.8626625
마두지구대,경기도 고양시 일산동구  노루목로 116,37.6500524,126.7785596
백석지구대,경기도 고양시 일산동구 장백로 76,37.6440811,126.7852717
풍사파출소,경기도 고양시 일산동구 숲속마을로 54,37.6675465,126.7973942
중산지구대,경기도 고양시 일산동구 중산로 220,37.6915861,126.7804741
탄현지구대,경기도 고양시 일산서구  현중로36번길 1,37.6941906,126.7679313
대화지구대,경기도 고양시 일산서구  일산로 670 ,37.6828012,126.7546205
주엽지구대,경기도 고양시 일산서구  강성로 107,37.6699882,126.763548
가좌파출소,경기도 고양시 일산서구  가좌로 24,37.6913342,126.7232178
일산파출소,경기도 고양시 일산서구 하늘마을로 190,37.68014,126.7770218
화도지구대,경기도 남양주시 화도읍 창현로 8,37.6503091,127.3058176
천마파출소,경기도 남양주시 화도읍 묵현로25번길 39-1,37.6596908,127.2866788
다산1파출소,경기도 남양주시  경춘로 경춘로439-1,37.608665,127.1621367
다산2지구대,경기도 남양주시 다산지금로 146번길 36,37.6005089,127.1700426
와부파출소,경기도 남양주시 와부읍 덕소로 63 ,37.5873279,127.2099053
호평파출소,경기도 남양주시  호평로68번길 11,37.6551481,127.2484516
금곡파출소,경기도 남양주시  금곡로 57,37.6343139,127.2094298
평내파출소,경기도 남양주시  경춘로 1211 ,37.6449843,127.2296513
조안파출소,경기도 남양주시 조안면 북한강로 131,37.5368651,127.3024555
수동파출소,경기도 남양주시 수동면 비룡로 808 ,37.7096254,127.3220276
진접파출소,경기도 남양주시 진접읍 장현로 113 ,37.7200478,127.1840082
별내파출소,경기도 남양주시  두물로 11,37.6556062,127.1261321
오남파출소,경기도 남양주시 진건읍 진건오남로 595-14,37.6868613,127.210349
해밀파출소,경기도 남양주시 진접읍 해밀예당1로 251,37.7221659,127.2047291
진건파출소,경기도 남양주시 진건읍 진건오남로 5,37.6514135,127.1786883
퇴계원파출소,경기도 남양주시 퇴계원면 퇴계원로 58-7,37.6517375,127.1425757
청학파출소,"경기도 남양주시 별내면 청학로68번길 8, ",37.7080002,127.1198077
금촌지구대,경기도 파주시  새꽃로 212,37.7657565,126.7759237
문산지구대,경기도 파주시 문산읍 개포래로 50-4,37.8539334,126.7833733
야당지구대,경기도 파주시  한울로 55-1,37.7115865,126.7383952
호수지구대,경기도 파주시 해솔로 84,37.72822,126.7462418
교하파출소,경기도 파주시  교하로 1431-2,37.7520911,126.7500093
파주파출소,경기도 파주시 파주읍 향교말길 26,37.8329509,126.8158808
법원파출소,경기도 파주시 법원읍 사임당로905번길 40,37.8490231,126.8798349
조리파출소,경기도 파주시 조리읍 봉천로 55,37.7438463,126.8055542
광탄파출소,경기도 파주시 광탄면 동거리길 25-7,37.7814707,126.8488804
적성파출소,경기도 파주시 적성면 청송로 1003,37.9533639,126.9169884
탄현파출소,경기도 파주시 탄현면 방촌로 669,37.8039273,126.7183904
파평파출소,경기도 파주시 적성면 청송로 198 ,37.9225852,126.8397892
월롱파출소,경기도 파주시 월롱면 휴암로 3 ,37.7956785,126.7910562
회천지구대,경기도 양주시  회정로 133,37.8376752,127.0680227
고읍지구대,경기도 양주시  고읍로 83,37.7965072,127.0808215
덕계지구대,경기도 양주시  평화로 1427,37.8182759,127.0457319
광적파출소,경기도 양주시 광적면 가래비길 54,37.8233827,126.9861641
백석파출소,경기도 양주시 백석읍 꿈나무로 142,37.7965122,126.9905185
장흥파출소,경기도 양주시 장흥면 호국로 179,37.7170579,126.94083
남면파출소,경기도 양주시 남면 개나리길 50,37.895261,126.9741611
주내파출소,경기도 양주시 부흥로 1613,37.7791542,127.051315
옥정지구대,경기도 양주시 옥정로8길 62,37.8270935,127.0943024
은현파출소,경기도 양주시 은현면 은현로55번길 6,37.8741165,127.0233767
송내지구대,경기도 동두천시  중앙로 157,37.8956299,127.0520779
중앙파출소,경기도 동두천시  중앙로 393 ,37.9132657,127.0607551
생연파출소,경기도 동두천시  생연로 99,37.9015462,127.0502569
광암파출소,경기도 동두천시  광암로 10,37.8948133,127.0830763
소요파출소,경기도 동두천시  평화로 2695,37.9286203,127.0564422
교문지구대,경기도 구리시  안골로 40,37.5969169,127.1355503
인창지구대,경기도 구리시  건원대로34번길 31,37.6054502,127.1414268
토평지구대,경기도 구리시  체육관로74번길 55,37.591331,127.1411962
갈매지구대,경기도 구리시 갈매순환로 112,37.6295832,127.1203336
수택파출소,경기도 구리시  검배로71번길 12-5 ,37.5964807,127.1471651
소흘지구대,경기도 포천시 소흘읍 태봉로 144번길 ,37.8305232,127.1402669
포천파출소,경기도 포천시  원모루로1길 32 ,37.8926332,127.1961324
군내파출소,경기도 포천시 군내면 청군로 3280,37.887615,127.218184
선단파출소,경기도 포천시  송선로 279 ,37.8572058,127.1503712
창수파출소,경기도 포천시 창수면 메치골로 174,37.9909812,127.1893377
내촌파출소,경기도 포천시 내촌면 내촌로 62 ,37.7854865,127.2273147
일동파출소,경기도 포천시 일동면 화동로 1023,37.9551586,127.3157049
관인파출소,경기도 포천시 관인면 관인로 15,38.1573232,127.2505479
신북파출소,경기도 포천시  호국로 2059,37.9334022,127.2264759
가산파출소,경기도 포천시 가산면 가산로309번길 13,37.8463304,127.1846775
화현파출소,경기도 포천시 화현면 화동로 327,37.8970427,127.3015112
이동파출소,경기도 포천시 이동면 화동로 2078 ,38.033179,127.3663775
영북파출소,경기도 포천시 영북면 운천로 4,38.0916627,127.2738738
영중파출소,경기도 포천시 영중면 양문로 109,38.0026098,127.2428432
조종파출소,경기도 가평군 조종면 현창로 43 ,37.8187326,127.3479299
상면파출소,경기도 가평군 상면 청군로 1101,37.800162,127.3488774
청평파출소,경기도 가평군 청평면 청평중앙로 33,37.7373884,127.4182824
읍내파출소,경기도 가평군 가평읍 가화로 38,37.8234204,127.5162298
북면파출소,경기도 가평군 북면 화악산로 6,37.8856854,127.5500424
설악파출소,경기도 가평군 설악면 신천중앙로 115 ,37.6777432,127.4907042
전곡파출소,경기도 연천군 전곡읍 전곡읍 선사로 410,38.0255398,127.0735343
청산파출소,경기도 연천군 연천읍 평화로 229,38.0904397,127.0791576
연천파출소,경기도 연천군 연천읍 문화로 67-1 ,38.099635,127.0773573
신서파출소,경기도 연천군 신서면 연신로 1153,38.1847698,127.107117
백학파출소,경기도 연천군 백학면 청정로 532-1,38.029713,126.9173744
왕징파출소,경기도 연천군 왕징면 왕산로28번길 3 ,38.0572216,127.0130927
군남파출소,경기도 연천군 군남면 군남로 413-6 ,38.0845758,127.0187681
중부지구대,강원도 춘천시  서부대성로 168(효자동603),37.8757743,127.7372902
후평지구대,강원도 춘천시  춘천로 325 ,37.8828342,127.7482626
서부지구대,강원도 춘천시 영서로 2414,37.8743679,127.7132257
남부지구대,강원도 춘천시  우석로4번길 21 남부지구대,37.8607906,127.7449695
소양로지구대,강원도 춘천시  공지로 571-1,37.8827251,127.7161414
남산파출소,강원도 춘천시 남산면 한치로 77,37.7914474,127.6464423
서면파출소,강원도 춘천시 서면 박사로 1277서면파출소,37.9225256,127.7097971
사북파출소,강원도 춘천시 사북면 영서로 4715 사북파출소,38.0296013,127.6410024
신북파출소,강원도 춘천시 신북읍 율문길 79,37.9255559,127.7466555
신사우파출소,강원도 춘천시  영서로2771번길 2,37.9008281,127.7284459
중부지구대,강원도 강릉시  용지로 172 중부지구대,37.7635468,128.9001937
동부지구대,강원도 강릉시  경강로 2439 동부지구대,37.774046,128.9262988
남부지구대,강원도 강릉시  임영로 74 ,37.7489779,128.8970609
북부지구대,강원도 강릉시 주문진읍 주문로 130,37.894518,128.8290788
서부지구대,강원도 강릉시  하슬라로 223,37.7698842,128.8754985
강동파출소,강원도 강릉시 강동면 율곡로 1954,37.7278036,128.9784813
옥계파출소,강원도 강릉시 옥계면 현내시장길 26,37.6126888,129.0385561
단관지구대,강원도 원주시  강변로 263,37.3310583,127.9613175
북원지구대,강원도 원주시  우산공단길 9-1 ,37.3739125,127.941809
단계지구대,강원도 원주시 북원로 2317,37.3522756,127.9344453
봉산지구대,강원도 원주시  현충로 107-8,37.3637826,127.9510499
흥업지구대,강원도 원주시 흥업면 남원로 43 ,37.3001079,127.9188848
중앙지구대,강원도 원주시  평원로 강원도 원주시 평원로 160(학성동),37.3569407,127.9441129
문막파출소,강원도 원주시 문막읍 건등로 3 ,37.311726,127.8167303
부론파출소,강원도 원주시 부론면 법천시장길 33,37.209316,127.7500523
지정지구대,강원도 원주시 지정면 가곡로 63,37.3795506,127.8761022
치악지구대,강원도 원주시 양지로 90,37.3287101,127.9837751
묵호지구대,강원도 동해시  발한로 241,37.5504411,129.1070649
천곡지구대,강원도 동해시  천곡로 16,37.5249384,129.1070547
북삼지구대,강원도 동해시  효자남길 33-8,37.4895726,129.107046
북평파출소,강원도 동해시  대동로 132,37.4835535,129.1264095
황지지구대,강원도 태백시  황지로 94(황지지구대),37.1670474,128.9921537
장성파출소,강원도 태백시  장성로 28(장성동),37.1023764,129.0089606
소도파출소,강원도 태백시  버들치길 태백시 버들치길 51,37.142154,128.9792082
철암파출소,강원도 태백시  상철암길 28-6 태백경찰서 철암파출소,37.125357,129.0455347
통리파출소,강원도 태백시  통리1길 112,37.1722441,129.0387916
영랑지구대,강원도 속초시  중앙로 22-9,38.1981878,128.58048
양양지구대,강원도 양양군 양양읍 남문로 35,38.0745819,128.6192211
청초지구대,강원도 속초시  동해대로 4100,38.1898181,128.5858902
현남파출소,강원도 양양군 현남면 인구중앙길 51 현남파출소,37.9696022,128.7599509
현북파출소,강원도 양양군 현북면 하조대1길 하조대 1길 57,38.0196692,128.7234392
강현파출소,강원도 양양군 강현면 동해대로 3485-39 강현파출소,38.1508259,128.6080398
서면파출소,강원도 양양군 서면 물윗구미길 9,38.0715525,128.5856674
하장파출소,강원도 삼척시 하장면 하장길 74,37.3475475,128.9444499
원덕파출소,강원도 삼척시 원덕읍 삼척로 418,37.174917,129.3376764
임원파출소,강원도 삼척시 원덕읍 삼척로 1214,37.2327804,129.3434233
근덕파출소,강원도 삼척시 근덕면 삼척로 3655 근덕파출소,37.3825171,129.2261334
미로파출소,강원도 삼척시 미로면 강원남부로 4033,37.4178808,129.1131766
도계파출소,강원도 삼척시 도계읍 도계로 262 도계파출소,37.229308,129.043803
성내파출소,강원도 삼척시  진주로 30 성내파출소,37.4433192,129.1642551
정라지구대,강원도 삼척시  새천년도로 40,37.4374177,129.1868906
영월지구대,강원도 영월군 영월읍 중앙로 77,37.1836162,128.4723393
남면파출소,강원도 영월군 남면 영월로 815 남면파출소,37.1859024,128.3991131
주천파출소,강원도 영월군 주천면 주천로 75,37.2703687,128.2672015
한반도파출소,강원도 영월군 한반도면 신천길 20-4,37.2363881,128.3273795
산솔파출소,강원도 영월군 중동면 태백산로 1198,37.1429537,128.6980911
김삿갓파출소,강원도 영월군 김삿갓면 영월동로 1676 ,37.1228065,128.6045181
남면파출소,강원도 정선군 남면 칠현로 45,37.2651012,128.739119
신동파출소,강원도 정선군 신동읍 의림로 321,37.2178683,128.6436608
화암파출소,강원도 정선군 화암면 그림바위길 68 화암파출소,37.3392315,128.7882359
임계파출소,강원도 정선군 임계면 서동로 4559,37.4987129,128.8655675
사북파출소,강원도 정선군 사북읍 사북중앙로 49 정선경찰서 사북파출소,37.2278461,128.8201229
고한파출소,강원도 정선군 고한읍 고한2길 5 ,37.2049612,128.8506414
여량파출소,강원도 정선군 여량면 서동로 2921 정선경찰서 여량파출소,37.4719409,128.7240865
정선파출소,강원도 정선군 정선읍 봉양7길 36,37.3790061,128.6661545
희망지구대,강원도 홍천군 홍천읍 진리로 31,37.694007,127.8893359
내면파출소,강원도 홍천군 내면 창촌로 65,37.7719138,128.3908293
서석파출소,강원도 홍천군 서석면 구룡령로 2517 ,37.69931,128.22632
서면파출소,강원도 홍천군 서면 팔봉산로 555,37.6906446,127.6659472
남면파출소,강원도 홍천군 남면 양덕원로 86,37.6157431,127.768202
화촌파출소,강원도 홍천군 화촌면 성산로 149,37.7640471,127.9563038
두촌파출소,강원도 홍천군 두촌면 자은로 353 ,37.86398,128.012
내촌파출소,강원도 홍천군 내촌면 내촌길 29,37.815482,128.0863012
평창지구대,강원도 평창군 평창읍 평창중앙로 5,37.3662723,128.3955597
중부지구대,강원도 평창군 봉평면 평온길 2 ,0,0
대화파출소,강원도 평창군 대화면 대화중앙로 112,37.4987859,128.4555513
진부파출소,강원도 평창군 진부면 청송로 103,37.6364324,128.5567063
대관령파출소,강원도 평창군 대관령면 대관령로 대관령로 95,37.672202,128.7089085
횡성지구대,강원도 횡성군 횡성읍 횡성로 389 ,37.4853503,127.9836556
둔내파출소,강원도 횡성군 둔내면 둔내로 33,37.5113824,128.2187746
우천파출소,강원도 횡성군 우천면 수남로 390,37.4657043,128.0457777
안흥파출소,강원도 횡성군 안흥면 안흥로 41,37.4103531,128.1551016
청일파출소,강원도 횡성군 청일면 청정로 825,37.6309595,128.1470661
서원파출소,강원도 횡성군 서원면 서원로  143,37.5238733,127.8858811
간성파출소,강원도 고성군 간성읍 간성로 104,38.3855067,128.4615373
토성파출소,강원도 고성군 토성면 토성로 165,38.2599152,128.5558829
죽왕파출소,강원도 고성군 죽왕면 심층수길 15,38.32482,128.5256179
금강파출소,강원도 고성군 거진읍 거진길 67,38.4487122,128.4565578
상동파출소,강원도 인제군 인제읍 인제로 178번길 52-6,0,0
남면파출소,강원도 인제군 남면 신남로 49 남면파출소,0,0
기린파출소,강원도 인제군 기린면 기린로 32,37.9530386,128.3163911
북면파출소,강원도 인제군 북면 원통로 278 북면파출소,0,0
서화파출소,강원도 인제군 서화면 천도로81번길 28,0,0
동송지구대,강원도 철원군 동송읍 금학로 169-8  동송지구대,0,0
갈말파출소,강원도 철원군 갈말읍 명성로174번길 51,0,0
김화파출소,강원도 철원군 서면 와수로 232 김화파출소,38.2426398,127.4436292
간동파출소,강원도 화천군 간동면 파로호로 1144 간동파출소,38.0545005,127.8128301
상서파출소,강원도 화천군 상서면 다파로 1625 상서파출소,38.1570886,127.6554745
하리파출소,강원도 화천군 화천읍 중앙로6길 40 하리파출소,38.1027734,127.7051421
하남파출소,강원도 화천군 하남면 원천새싹길 8 하남파출소,0,0
사내파출소,강원도 화천군 사내면 포화로 1156 사내파출소,38.0700166,127.522588
상리파출소,강원도 양구군 양구읍 택지길 74-45 ,38.1045074,127.9862655
국토정중앙파출소,강원도 양구군 국토정중앙면 삼팔선로 10-3,38.1009633,128.039809
동면파출소,강원도 양구군 동면 금강산로 1685,38.189684,128.0368046
방산파출소,강원도 양구군 방산면 평화로 5192,38.2268037,127.9735093
해안파출소,강원도 양구군 해안면 펀치볼로 1313 ,38.2909877,128.1412688
복대지구대,충청북도 청주시 흥덕구  진재로 16 복대지구대,0,0
강서지구대,충청북도 청주시 흥덕구  가로수로 1158 ,36.6234997,127.3740772
봉명지구대,충청북도 청주시 흥덕구 송절로 64번길 13,0,0
옥산파출소,충청북도 청주시 흥덕구 옥산면 청주역로 662 옥산파출소,0,0
오송파출소,충청북도 청주시 흥덕구 오송읍 가로수로 197 ,36.6041098,127.3075043
강내파출소,충청북도 청주시 흥덕구 강내면 가로수로 566 강내파출소,36.6239053,127.3628156
남이파출소,충청북도 청주시 서원구 남이면 청남로 1205 남이파출소,36.5595568,127.4336189
현도파출소,충청북도 청주시 서원구 현도면 청남로 358 현도파출소,36.4867692,127.4241666
기동순찰대기동순찰대,충청북도 청주시 흥덕구 월명로236번길 15,36.655834,127.4561286
용암지구대,충청북도 청주시 상당구  용암북로160번길 7 용암지구대,0,0
분평지구대,충청북도 청주시 서원구  분평로 37 분평지구대,0,0
성안지구대,충청북도 청주시 상당구  상당로 94 성안지구대,0,0
미원파출소,충청북도 청주시 상당구 미원면 미원시내2길 43 ,36.6318478,127.6539744
남일파출소,충청북도 청주시 상당구 남일면 단재로 657 ,36.565467,127.5096402
문의파출소,충청북도 청주시 상당구 문의면 문의시내로 1 ,36.5186215,127.4971565
가덕파출소,충청북도 청주시 상당구  남일면 보청대로 4761,36.5546431,127.5462181
기동순찰대기동순찰대,충청북도 청주시 상당구 목련로 266,36.6086863,127.5299425
내덕지구대, 충청북도 청주시 청원구  중앙로 202 내덕지구대,36.65514225,127.4880476
사창지구대, 충청북도 청주시 서원구  1순환로 690 사창지구대,0,0
율량지구대, 충청북도 청주시 청원구  율량로3번길 41 율량지구대,0,0
서오창지구대, 충청북도 청주시 청원구 오창읍 양청리 753,0,0
오창지구대, 충청북도 청주시 청원구 오창읍 2산단로 113 오창지구대,0,0
내수파출소, 충청북도 청주시 청원구 내수읍 청암로 100-6 내수파출소,0,0
기동순찰대기동순찰대, 충청북도 청주시 청원구 향군로 60 청주청원경찰서,0,0
연수지구대,충청북도 충주시  연수서편2길 8,36.9906137,127.9333256
중앙지구대,충청북도 충주시  중앙로 109 중앙지구대,36.9720868,127.9356031
서충주지구대,충청북도 충주시 대소원면 대소원로 134,36.97492285,127.819577
호암지구대,충청북도 충주시  중원대로 3394 호암지구대,36.9701463,127.9236164
엄정지구대,충청북도 충주시 엄정면 내창로 179,37.0923293,127.9270902
앙성파출소,충청북도 충주시 앙성면 가곡로 1029,37.1087627,127.7503267
금가파출소,충청북도 충주시 금가면 강수로 351,37.0438849,127.9081696
수안보파출소,충청북도 충주시 수안보면 온천중앙길 6,36.84779705,127.9899889
중앙탑파출소,충청북도 충주시 중앙탑면 중앙탑길 251,37.0301139,127.8562193
청전지구대,충청북도 제천시  용두천로 318,37.1499377,128.2198871
중앙지구대,충청북도 제천시  독순로 77,37.1373591,128.2176905
강저지구대,충청북도 제천시  청풍호로 79,37.1240433,128.2022594
청풍파출소,충청북도 제천시 청풍면 청풍호로 2119,36.9701,128.16037
덕산파출소,충청북도 제천시 덕산면 약초로 85,36.8944609,128.1873824
용두파출소,충청북도 제천시  용두대로 33,37.1522718,128.1378986
봉양파출소,충청북도 제천시 봉양읍 북부로 1455,37.1331255,128.0931862
설성지구대,충청북도 음성군 음성읍 중앙로 181,36.9338967,127.6882976
금왕지구대,충청북도 음성군 금왕읍 금석로 73,36.9876479,127.6003778
대소파출소,충청북도 음성군 대소면 오산로 43,36.9692896,127.4857219
감곡파출소,충청북도 음성군 감곡면 장감로 127,37.1149399,127.6431854
삼성파출소,충청북도 음성군 삼성면 덕정로 111,37.0208588,127.5018213
맹동파출소,충청북도 음성군 맹동면 덕금로 408,36.9385734,127.5748397
혁신파출소,충청북도 음성군 맹동면 장성로 115 ,36.9099045,127.5359129
중앙지구대,충청북도 영동군 영동읍 계산로 63,36.1734866,127.7824068
황간파출소,충청북도 영동군 황간면 영동황간로 1661,36.2258636,127.9025528
상촌파출소,충청북도 영동군 용화면 민주지산로 3027,36.01827,127.76213
학산파출소,충청북도 영동군 학산면 서산로 72 ,36.1010809,127.6864704
양강파출소,충청북도 영동군 양강면 학산영동로 835,36.1317,127.7381275
용산파출소,충청북도 영동군 용산면 용산로 400,36.2553185,127.8264893
괴산지구대,충청북도 괴산군 괴산읍 읍내로 246 괴산지구대,0,0
증평지구대,충청북도 증평군 증평읍 중앙로 232,36.7739084,127.5676623
칠성파출소,충청북도 괴산군 칠성면 도정로 53,36.786458,127.8727671
청안파출소,충청북도 괴산군 청안면 읍내리 청안읍내로 22,36.7842125,127.6402258
청천파출소,충청북도 괴산군 청천면 괴산로 1357 ,36.6337715,127.7476368
불정파출소,충청북도 괴산군 불정면 목도로 24 ,36.8734729,127.8530007
연풍파출소,충청북도 괴산군 연풍면 향교로 43 ,36.7662235,128.0011687
중앙지구대,충청북도 단양군 단양읍 삼봉로 259,36.98016925,128.3677944
영춘파출소,충청북도 단양군 영춘면 온달평강로 67,37.0744289,128.486611
대강파출소,충청북도 단양군 대강면 대강로 68,0,0
가곡파출소,충청북도 단양군 가곡면 남한강로 530 ,37.0141736,128.3835124
매포파출소,충청북도 단양군 매포읍 평동로 114,37.0312172,128.3026447
읍내지구대,충청북도 보은군 보은읍 뱃들4길 11-6 ,36.4888011,127.724648
속리산파출소,충청북도 보은군 속리산면 법주사로 276 ,36.5308674,127.8223255
내북파출소,충청북도 보은군 내북면 남부로 6277 ,36.5763646,127.6593643
회인파출소,충청북도 보은군 회인면 회인로 88,36.4917802,127.5976376
삼승파출소,충청북도 보은군 삼승면 원남로 56-1 ,36.3948541,127.7326876
마로파출소,충청북도 보은군 마로면 관기송현로 54,36.4338719,127.8264568
중앙지구대,충청북도 옥천군 옥천읍 지용로 21 중앙지구대,0,0
청산파출소,충청북도 옥천군 청산면 지전길 48,36.3465747,127.7917243
청성파출소,충청북도 옥천군 청성면 산계길 97,36.3283737,127.7601744
이원파출소,충청북도 옥천군 이원면 신흥1길 18,36.24573515,127.6194937
군북파출소,충청북도 옥천군 군북면 옥천로 1114 ,36.3317755,127.532863
안내파출소,충청북도 옥천군 안내면 안내보은로 114,36.4000649,127.6683807
동이파출소,충청북도 옥천군 동이면 평산길 34,36.2844444,127.6195337
상산지구대,충청북도 진천군 진천읍 남산3길 10 ,36.8540053,127.4400066
덕산지구대,충청북도 진천군 덕산읍 덕금로 803 ,36.9116331,127.5049874
이월파출소,충청북도 진천군 이월면 진광로 803 ,36.9325244,127.4297969
광혜원파출소,충청북도 진천군 광혜원면 중리3길 18,36.9898856,127.4436118
초평파출소,충청북도 진천군 초평면 초동로 9,36.846972,127.5356223
쌍용지구대,충청남도 천안시 서북구 쌍용12길 3,36.8025689,127.1203297
두정지구대,충청남도 천안시 서북구  오성9길 40,36.833217,127.1319736
성정지구대,충청남도 천안시 서북구  천안천4길 48 ,36.8103139,127.1448471
불당지구대,충청남도 천안시 서북구 불당23로 66,36.8194404,127.1011547
직산파출소,충청남도 서북구 직산읍 삼은2길 27,36.8785672,127.1484928
성거파출소,충청남도 천안시 서북구 성거읍 성거길 80,36.8823088,127.2065751
성환파출소,충청남도 천안시 서북구 성환읍 성환11길 5,36.9163286,127.132441
입장파출소,충청남도 천안시 서북구 입장면 망향로 1088,36.9076593,127.2269931
목천북면파출소,충청남도 천안시 동남구 목천읍 서리1길 50,36.7904837,127.2345061
수신성남파출소,충청남도 천안시 동남구 수신면 수신로 433,36.72765,127.2797945
병천동면파출소,충청남도 천안시 병천면 충절로 1729,36.7642767,127.311659
광덕풍세파출소,충청남도 천안시 광덕면 신흥리4길 46 ,36.6988308,127.1117024
신방파출소,충청남도 천안시 동남구 통정4로 38,36.77535205,127.1334738
문성파출소,충청남도 천안시 동남구 옛시청길 21,36.8070303,127.1485097
신안파출소,충청남도 천안시 동남구 중앙로 217,36.8235318,127.152677
남산지구대,충청남도 천안시 동남구 충무로 437-1,36.7987035,127.1618472
원성파출소,충청남도 천안시 동남구 충절로 161,36.8063748,127.1588033
일봉지구대,충청남도 천안시 동남구 차돌로 44,36.8020237,127.1385528
청수파출소,충청남도 천안시 동남구 청수 14로 103,0,0
대산지구대,충청남도 서산시 대산읍 충의로 1932,36.9557332,126.4214965
서부지구대,충청남도 서산시  호수공원11로 31,36.7745465,126.4471742
동부파출소,충청남도 서산시  홍천로 20,36.7931309,126.4838595
해미파출소,충청남도 서산시 해미면 남문2로 183,36.7122389,126.5461797
성연파출소,충청남도 서산시 성연면 성연로 202,36.8423133,126.4712641
부석파출소,충청남도 서산시 부석면 취평2길 36,36.7154506,126.3927532
팔봉파출소,충청남도 서산시 팔봉면 팔봉1로 409,36.81336,126.34923
온천지구대,충청남도 아산시  삼동로16번길 7-11,36.7804052,127.0162017
온양지구대,충청남도 아산시  시민로258번길 3-1,36.77304795,126.9951321
충무지구대,충청남도 아산시  시민로 370-12,36.7886615,127.0017147
신창파출소,충청남도 아산시 신창면 서북부로 610,0,0
탕정파출소,충청남도 아산시 탕정로23번길 7,0,0
인주파출소,충청남도 아산시 인주면 공세길 54 공세리 282-2,0,0
도고선장파출소,충청남도 아산시 도고면 아산만로198번길 10,36.7619768,126.8688675
음봉파출소,충청남도 아산시 음봉면 음봉면로 19,36.8619269,127.0275709
둔포파출소,충청남도 아산시 둔포면 둔포면로 37,36.9288578,127.0375755
영인파출소,충청남도 아산시 영인면 아산리길 23 ,36.8556602,126.953517
배방파출소,충청남도 아산시 배방읍 모산로 151,36.7757425,127.0638118
장재파출소,충청남도 아산시 배방읍 용연로 92,36.78877835,127.0905932
계룡지구대,충청남도 계룡시 엄사면 계백로 3120,36.2821925,127.2419092
논산지구대,충청남도 논산시  해월로 157 ,36.2090761,127.0967249
강경지구대,충청남도 논산시 강경읍 대흥로 1-2,36.1567444,127.0130121
연무지구대,충청남도 논산시 연무읍 안심로61번길 4,0,0
상월파출소,충청남도 논산시 상월면 백일헌로 1035 ,36.2813893,127.143967
양촌파출소,충청남도 논산시 양촌면 황산벌로 428,36.1615383,127.2059497
연산파출소,충청남도 논산시 연산면 선비로275번길 28,36.2141826,127.1995947
신관지구대,충청남도 공주시  한적2길 25,36.4784847,127.1398221
금학지구대,충청남도 공주시  우금티로 535,36.4465743,127.1355855
유구파출소,충청남도 공주시 유구읍 중앙1길 115,0,0
탄천이인파출소,충청남도 공주시 이인면 은행길 34,36.3619747,127.0611878
반포파출소,충청남도 공주시 반포면 반포초교길 15,36.3992327,127.2482175
정안파출소,충청남도 공주시 정안면 정안중앙길 169 ,36.6148158,127.1240329
계룡파출소,충청남도 공주시 계룡면 영규대사로 495,36.3476917,127.1379959
우성사곡파출소,충청남도 공주시 우성면 동대리길 75,36.4707093,127.0484314
해수욕장지구대,충청남도 보령시  머드로 70,36.3152325,126.5114069
동대지구대,충청남도 보령시  신설1길 53,36.3511022,126.6063516
미산파출소,충청남도 보령시 미산면 만수로 1129,0,0
천북파출소,충청남도 보령시 천북면 하궁길 8,36.481625,126.5299612
주포파출소,충청남도 보령시 주포면 보령읍성길 80-32,36.4155419,126.588362
대천파출소,충청남도 보령시  구시1길 38,36.3502466,126.5902175
웅천파출소,충청남도 보령시 웅천읍 충서로 928길  ,0,0
오천파출소,충청남도 보령시 오천면 소성안길 50 ,36.4379027,126.5210219
중앙지구대,충청남도 당진시 당진중앙2로157,0,0
신평파출소,충청남도 당진시 신평면 신평로840,0,0
면천파출소,충청남도 당진시 면천면 면천서문1길 82,36.8168298,126.6623494
합덕파출소,충청남도 당진시 합덕읍 합우로168,0,0
석문지구대,충청남도 당진시 석문면 통정3길 13,0,0
송악지구대,충청남도 당진시 송악로 660 송악파출소,0,0
송산파출소,충청남도 당진시 송산면 상거중앙길 59,36.93207,126.67902
기지시파출소,충청남도 당진시 송악읍 기지시1길 42,0,0
순성파출소,충청남도 당진시 순성면 순성로 507-3,36.8436237,126.7113448
오관지구대,충청남도 홍성군 홍성읍 내포로 14,36.6007258,126.6663817
내포지구대,충청남도 홍성군 홍북읍 홍학로 56,36.6412044,126.6843295
광천지구대,충청남도 홍성군 광천읍 광천로 341-2,36.5015187,126.6242921
서부결성파출소,충청남도 홍성군 서부면 서부로 514,36.5819937,126.5155716
홍동장곡파출소,충청남도 홍성군 홍동면 홍장남로 711,36.5331286,126.6956392
갈산파출소,충청남도 홍성군 갈산면 갈산로 95,36.6019552,126.5567373
금마파출소,충청남도 홍성군 금마면 금북로 32,36.6206429,126.7119835
예산지구대,충청남도 예산군 예산읍 아리랑로 22,36.6811598,126.8529593
삽교지구대,충청남도 예산군 삽교읍 삽교로1길 28,36.6878107,126.7377018
덕산지구대,충청남도 예산군 덕산면 덕산온천로 427,36.6838793,126.6588873
대술신양파출소,충청남도 예산군 대술면 대술로 145-1,36.6792886,126.9081005
광시대흥파출소,충청남도 예산군 광시면 예당로 157 ,36.5657384,126.7812014
신례원신암파출소,충청남도 예산군 예산읍 신례원로 181번길,0,0
백강지구대,충청남도 부여군 부여읍 사비로 93,36.2740908,126.910467
외내산파출소,충청남도 부여군 외산면 외산로 69,36.3004877,126.7033709
임천파출소,충청남도 부여군 임천면 성흥로 117,36.1797564,126.9198368
세도파출소,충청남도 부여군 세도면 세도중앙로 30,36.1706374,126.9451278
홍산파출소,충청남도 부여군 홍산면 홍산로 70 ,36.2177218,126.7651313
구룡파출소,충청남도 부여군 구룡면 흥수로 158,36.2540438,126.8190157
석성파출소,충청남도 부여군 석성면 왕릉로 695,36.2468214,127.0163619
규암파출소,충청남도 부여군 규암면 수북로 73 ,36.2727635,126.8889755
은산파출소,충청남도 부여군 은산면 충절로 2792,36.3275883,126.8154696
금강지구대,충청남도 서천군 장항읍 장항로 134,36.0133821,126.6812035
서림지구대,충청남도 서천군 서천읍 서천로 69,36.0862923,126.6852901
판교파출소,충청남도 서천군 판교면 대백제로1908,0,0
한산파출소,충청남도 서천군 한산면 한마로61번길 3-4,36.0851805,126.801287
비인파출소,충청남도 서천군 비인면 비인로 193,36.1434201,126.5979672
서면파출소,충청남도 서천군 서면 서인로 541 ,36.1558725,126.5685
마서파출소,충청남도 서천군 마서면 장서로 691,36.0431951,126.705676
봉황지구대,충청남도 금산군 제원면 금강로 113,36.1115547,127.5498632
진악지구대,충청남도 금산군 금산읍 금산로 1446,36.1161811,127.4944241
진산파출소,충청남도 금산군 진산면 대둔산로 405 ,36.1314218,127.3525365
복수파출소,충청남도 금산군 복수면 복수로 114,36.177469,127.3913028
추부파출소,충청남도 금산군 추부면 마전로 56-1,36.1890094,127.4696015
정산파출소,충청남도 청양군 정산면 칠갑산로 1948 ,36.4008601,126.9755656
칠갑지구대,충청남도 청양군 청양읍 칠갑산로 213,36.4449462,126.8300935
장평청남파출소,충청남도 청양군 장평면 닭우리고개길 39,36.3408868,126.8927636
화성남양파출소,충청남도 청양군 화성면 무한로 130,36.4266281,126.7139454
비봉파출소,충청남도 청양군 비봉면 충절로 1988,36.5007558,126.7901559
운곡파출소,충청남도 청양군 운곡면 청신로 878,36.525037,126.8455523
태안지구대,충청남도 태안군 태안읍 중앙로 177,36.7504424,126.3164577
안면파출소,충청남도 태안군 안면읍 장터로 145,36.5200188,126.3448824
원북파출소,충청남도 태안군 원북면 상리길 31-4,36.8240171,126.2576535
근흥파출소,충청남도 태안군 근흥면 근흥로 730,36.70944,126.22274
남면파출소,충청남도 태안군 남면 남면로 101,36.6721458,126.2999238
소원파출소,충청남도 태안군 소원면 신덕길 17-1,0,0
서신지구대,전라북도 전주시 완산구  새터로 46 서신지구대,0,0
남문지구대,전라북도 전주시 완산구  대동로 95 남문지구대,0,0
삼천지구대,전라북도 전주시 완산구  성지산로 24 삼천지구대,0,0
화산지구대,전라북도 전주시 완산구  서원로 295 화산지구대,35.81201735,127.1267739
효자지구대,전라북도 전주시 완산구  용머리로 125 효자지구대,0,0
서부지구대,전라북도 전주시 완산구  마전들로 1 서부파출소,0,0
평화지구대,전라북도 전주시 완산구  평화로 159 평화파출소,0,0
서학파출소,전라북도 전주시 완산구  서학3길 45 서학파출소,0,0
덕진지구대,전라북도 전주시 덕진구  사평로 76 덕진지구대,0,0
아중지구대,전라북도 전주시 덕진구  진버들4길 10 아중지구대,0,0
모래내지구대,전라북도 전주시 덕진구  안덕원로 173 모래내지구대,0,0
호성파출소,전라북도 전주시 덕진구  동부대로 871 호성파출소,35.8639546,127.149402
역전파출소,전라북도 전주시 덕진구  동부대로 688 역전파출소,0,0
여의파출소,전라북도 전주시 덕진구  쪽구름로 82 여의파출소,35.87276755,127.0761276
팔복파출소,전라북도 전주시 덕진구  신복로 58 팔복파출소,35.8560862,127.107985
솔내파출소,전라북도 전주시 덕진구  솔내6길 23 솔내파출소,0,0
송천2파출소,전라북도 전주시 덕진구  송천로 50 송천2파출소,0,0
진북파출소,전라북도 전주시 덕진구  진북1길 19 진북파출소,0,0
혁신파출소,전라북도 전주시 덕진구  출판로 92 혁신파출소,0,0
나운지구대,전라북도 군산시  대학로 293,35.9739678,126.7012326
임피파출소,전라북도 군산시 임피면 서원석곡로 610,35.9754244,126.8427088
성산파출소,전라북도 군산시 성산면 동군산로 25,35.9838662,126.8199933
나포파출소,전라북도 군산시 나포면 십자들로 644,36.01644,126.8117036
서수파출소,전라북도 군산시 서수면 항쟁로 191,35.9844626,126.8719745
대야파출소,전라북도 군산시 대야면 만자로 10,35.9430478,126.806422
개정파출소,전라북도 군산시  개정면 번영로 459,35.9637724,126.7551054
회현파출소,전라북도 군산시 회현면 회현로 173,35.9147614,126.7459923
은파지구대,전라북도 군산시  백토로 221번지,0,0
옥산파출소,전라북도 군산시 옥산면 옥산로 236(옥산면),0,0
옥구파출소,전라북도 군산시  대학로 806,35.9739678,126.7012326
개야도파출소,전라북도 군산시 옥도면 개야도2길 19 개야도파출소,0,0
어청도파출소,전라북도 군산시 옥도면 어청도길 93,36.1223226,125.9777259
선유도파출소,전라북도 군산시 옥도면 선유북길 70-2,35.81353625,126.4146008
옥서파출소,전라북도 군산시 옥서면 옥구저수지로 182,35.9301915,126.6462927
비응파출소,전라북도 군산시  요죽안2길 31,35.9641541,126.5662423
중앙파출소,전라북도 군산시  서래안2길 24,35.983102,126.726314
개복파출소,전라북도 군산시  중정1길 16,35.9848652,126.7128592
경장지구대,전라북도 군산시  조촌2길 92-02,35.9714513,126.7346241
서해지구대,전라북도 군산시  공항로 377,35.9825653,126.6830071
수송지구대,전라북도 군산시  미장안3길 3,35.9653318,126.7291523
신동지구대,전라북도 익산시  익산대로64길 34,35.9629661,126.9540918
부송팔봉지구대,전라북도 익산시 무왕로 1152,35.9897332,127.0801268
중앙지구대,전라북도 익산시  인북로 146,35.9499897,126.9573741
평화지구대,전라북도 익산시  인북로1길 26,35.9305378,126.9471933
금마파출소,전라북도 익산시 금마면 동고도리 874,0,0
여산파출소,전라북도 익산시 여산면 가람로 376,36.0585908,127.085113
왕궁파출소,전라북도 익산시 왕궁면 왕궁로 537,35.9617641,127.0874056
용안파출소,전라북도 익산시 용안면 현내1로 88,36.1211515,126.9471892
망성파출소,전라북도 익산시 망성면 무네미길 94,36.1388094,127.018329
황등파출소,전라북도 익산시 황등면 황등로 120,35.9941703,126.9490805
삼기파출소,전라북도 익산시 삼기면 황금로 475,36.0166977,126.9899663
함라파출소,전라북도 익산시 함라면 수동길 4,36.060619,126.9082552
함열파출소,전라북도 익산시 함열읍 함열1길 33 ,36.0787618,126.9580484
낭산파출소,전라북도 익산시 낭산면 함낭로 957 낭산파출소,36.0782334,127.0107154
웅포파출소,전라북도 익산시 웅포면 웅포리 806,0,0
성당파출소,전라북도 익산시 성당면 성당로 159,36.1065265,126.9236358
용동파출소,전라북도 익산시 용동면 용동1길 80-27 용동파출소,0,0
오산파출소,전라북도 익산시 오산면 평동로 302,35.9384271,126.9091291
춘포파출소,전라북도 익산시  춘포로 340,35.9005762,127.0065961
중앙지구대,전라북도 정읍시  수성5로 45-14,35.5825541,126.862631
상동지구대,전라북도 정읍시  상사3길 22,0,0
태인파출소,전라북도 정읍시 태인면 태인로 41,0,0
북면파출소,전라북도 정읍시 북면 정읍북로 554 북면파출소,0,0
칠보파출소,전라북도 정읍시 칠보면 칠보중앙로 97 칠보파출소,0,0
산외파출소,전라북도 정읍시 칠보면 산외로 438,35.5986475,127.0077775
산내파출소,전라북도 정읍시 산내면 능교신기길2,0,0
농소파출소,전라북도 정읍시  충정로 545,35.5804952,126.8385022
입암파출소,전라북도 정읍시 입암면 정읍남로 501 입암파출소,35.50498885,126.7935014
과교파출소,전라북도 정읍시  정읍사로 145,35.5447992,126.8597723
고부파출소,전라북도 정읍시 고부면 영주로 542,35.6185527,126.7716967
이평파출소,"전라북도 정읍시  황토현로 304번지 ""이평파출소""",0,0
신태인파출소,전라북도 정읍시 신태인읍 신태인중앙로 30,35.6887772,126.8869955
감곡파출소,전라북도 정읍시 감곡면 원삼1길 33,35.7146271,126.9288105
소성파출소,전라북도 정읍시 소성면 보화1길 118,35.5559455,126.7784862
역전지구대,전라북도 정읍시  서부산업도로 303,35.5993186,126.8784654
중앙지구대,전라북도 남원시  충정로 43,35.4242654,127.3964953
도통지구대,전라북도 남원시  요천로 1812 ,35.3144856,127.2990203
금지파출소,전라북도 남원시 금지면 요천로 527,35.3184946,127.2989061
운봉파출소,전라북도 남원시 운봉읍 운성로 30,35.4385336,127.5343367
인월파출소,전라북도 남원시 인월면 인월로 56,35.46248,127.60816
산내파출소,전라북도 남원시 산내면 대정길 119,35.4192398,127.6261293
아영파출소,전라북도 남원시 아영면 아백로 363,35.51363,127.6148
송동파출소,전라북도 남원시 송동면 송기길 58,35.3503896,127.3350258
대강파출소,전라북도 남원시 금지면 섬진로 885,35.31436,127.2636
사매파출소,전라북도 남원시 사매면 덕오로 100,35.500701,127.3604458
보절파출소,전라북도 남원시 보절면 신흥2길 11,35.5129393,127.4023801
신풍지구대,전라북도 김제시 금성8길 21,35.8001647,126.8985198
월촌지구대,전라북도 김제시 부량면 벽골제로 837,35.7498188,126.8502943
백산파출소,전라북도 김제시 백산면 백산로 52-1,35.8376896,126.8888921
용지파출소,전라북도 김제시 용지면 용지로 447,35.8481246,126.9488169
공덕파출소,전라북도 김제시 공덕면 유강로 221,35.9036461,126.9342765
백구파출소,전라북도 김제시 번영로 2503,35.9032795,126.9569871
금산파출소,전라북도 김제시 금산면 원평로 85,35.7172779,126.9954413
금구파출소,전라북도 김제시 금구면 봉두로 77,35.7752649,127.0074638
봉남파출소,전라북도 김제시 금산면 봉남로 415,35.7293079,126.9906865
만경파출소,전라북도 김제시 만경읍 두내산로 53,35.8553149,126.8178321
진봉파출소,전라북도 김제시 성덕면 지평선로 1748,35.8207208,126.7698884
죽산파출소,전라북도 김제시 죽산면 죽산로 119-7,35.7707678,126.8193851
소양파출소,전라북도 완주군 소양면 소양로 228,35.8533926,127.2246807
상관파출소,전라북도 완주군 상관면 신리로 83,35.7650094,127.2144257
이서파출소,전라북도 완주군 이서면 이서로 51,35.8201463,127.0196493
고산파출소,전라북도 완주군 고산면 고산로 93,35.9840021,127.2475403
화산파출소,전라북도 완주군 화산면 화산로 860,36.0402192,127.2100327
운주파출소,전라북도 완주군 운주면 운주로 120,36.0931101,127.2775206
구이파출소,전라북도 완주군 구이면 상하학길 5번지,0,0
둔산파출소,전라북도 완주군 봉동읍 둔산3로 94,35.96333005,127.1279803
봉동파출소,전라북도 완주군 봉동읍 봉동동서로 145 봉동파출소,0,0
용진파출소,전라북도 완주군 용진면 완주로 198,0,0
삼례파출소,전라북도 완주군 삼례읍 삼례역로 29,35.9087718,127.0704017
모양지구대,전라북도 고창군 고창읍 남구1길 14 모양지구대,0,0
대산파출소,전라북도 고창군 대산면 고산성로 4번지 대산파출소,0,0
공음파출소,전라북도 고창군 공음면 공음길 39-1 공음파출소,35.3782313,126.5123744
성송파출소,전라북도 고창군 성송면 대성로 777 성송파출소,35.36504165,126.6459637
아산파출소,전라북도 고창군 아산면 녹두로 796 아산파출소,35.4399182,126.6358318
해리파출소,전라북도 고창군 해리면 해리중앙로 49 해리파출소,0,0
무장파출소,전라북도 고창군 무장읍성길 55 무장파출소,0,0
흥덕파출소,전라북도 고창군 흥덕면 선운대로 3759 흥덕파출소,35.5211932,126.7020071
부안파출소,전라북도 고창군 부안면 복분자로 873 부안파출소,0,0
서림지구대,전라북도 부안군 부안읍 석정로 154 서림지구대,35.7318635,126.7361688
진서파출소,전라북도 부안군 진서면 곰소8길 14 진서파출소,0,0
보안파출소,전라북도 부안군 보안면 부안로 1154 보안파출소,35.6115158,126.66857
줄포파출소,전라북도 부안군 줄포면 줄포1길 4 줄포파출소,0,0
위도파출소,전라북도 부안군 위도면 위도로 247 위도파출소,35.60461945,126.2953262
격포파출소,전라북도 부안군 변산면 격포로 180 격포파출소,0,0
하서파출소,전라북도 부안군 하서면 하서길 52 하서파출소,35.7146125,126.6606078
계화파출소,전라북도 부안군 계화면 간재로 399 계화파출소,0,0
상서파출소,전라북도 부안군 상서면 부안로 1991 상서파출소,35.6857073,126.6774807
주산파출소,전라북도 부안군 주산면 선돌로 325 주산파출소,0,0
오수지구대,전라북도 임실군 오수면 충효로 2095-7,35.53984,127.31519
운수파출소,전라북도 임실군 임실읍 봉황로 212,35.623198,127.2900862
강진파출소,전라북도 임실군 강진면 강운로 143,35.527046,127.1547868
하운암파출소,전라북도 임실군 운암면 강운로 1018,35.5751659,127.135233
관촌파출소,전라북도 임실군 관촌면 사선로 35,35.6726915,127.26989
신평파출소,전라북도 임실군 신평면 가덕로 665,35.6569402,127.2301343
팔덕파출소,"전라북도 순창군 팔덕면 강천로 334, 팔덕파출소",35.3917141,127.0967033
쌍치파출소,"전라북도 순창군 쌍치면 쌍계로 25번지, 쌍치파출소",0,0
복흥파출소,전라북도 순창군 복흥면 추령로 1147 복흥파출소,35.4313748,126.9307321
구림파출소,"전라북도 순창군 구림면 구림로 469, 구림파출소",0,0
남계파출소,"전라북도 순창군 순창읍 남계로 30, 남계파출소",0,0
순화파출소,"전라북도 순창군 순창읍 장류로 338, 순화파출소 ",0,0
동계파출소,"전라북도 순창군 동계면 충효로 347, 동계파출소 ",0,0
동향안천파출소,전라북도 진안군 동향면 양지길 35 (동향안천파출소),0,0
마령파출소,전라북도 진안군 마령면 임진로 2100(마령파출소),0,0
백운파출소,전라북도 진안군 백운면 임진로 1338(백운파출소),35.6921591,127.3973108
성수파출소,전라북도 진안군 성수면 관진로 771 (성수파출소),35.7074625,127.3233639
부귀파출소,전라북도 진안군 부귀면 부귀로 335 (부귀파출소),35.8375155,127.3640887
주천용담파출소,전라북도 진안군 주천면 동상주천로 2201 (주천용담파출소),35.9738548,127.4254418
마이파출소,전라북도 진안군 진안읍 진무로 1018(마이파출소),0,0
정천상전파출소,전라북도 진안군 정천면 봉학로 105(정천상전파출소),35.8729025,127.4244765
장수파출소,전라북도 장수군 장수읍 장천로 228 ,35.6547656,127.5205808
번암파출소,전라북도 장수군 번암면 장수로 474,35.53777,127.52619
산서파출소,전라북도 장수군 산서면 비행로 20,35.5856409,127.3942113
장계파출소,전라북도 장수군 장계면 한들로 97,35.73039,127.59088
천천파출소,전라북도 장수군 천천면 천천로 67 ,35.73924,127.53497
계북파출소,전라북도 장수군 계북면 장무로 953,35.7926301,127.619871
주계파출소,전라북도 무주군 무주읍 적천로 367 ,36.0033625,127.6500606
설천파출소,전라북도 무주군 설천면 무설로 1549 ,36.00869,127.78797
구천파출소,전라북도 무주군 설천면 구천동1로 160,35.9023986,127.7772249
안성파출소,전라북도 무주군 안성면 안성로 274,35.8728786,127.6725649
적상파출소,전라북도 무주군 적상면 적상산로 37 적상파출소,0,0
무풍파출소,전라북도 무주군 무풍면 현내로 203,35.9624803,127.863826
부남파출소,전라북도 무주군 부남면 부남로 856,35.97995,127.55623
하당지구대,전라남도 목포시  하당로 62,34.7986969,126.4191144
흑산파출소,전라남도 신안군 흑산면 예리1길 80-4,34.6853864,125.4454099
하의파출소,전라남도 신안군 하의면 곰실길 19,34.6061,126.0367272
안좌파출소,전라남도 신안군 안좌면 안좌동부길 832,34.7545665,126.126803
팔금파출소,전라남도 신안군 팔금면 탑목개길 149,34.78234945,126.1426302
지도파출소,전라남도 신안군 지도읍 읍내길 79,35.0608611,126.2079982
임자파출소,전라남도 신안군 임자면 진리길 1,35.08472655,126.1111886
자은파출소,전라남도 신안군 자은면 구영2길 71 ,34.88654945,126.0442195
암태파출소,전라남도 신안군 암태면 중부로 1827-2,34.8296573,126.1141446
비금파출소,전라남도 신안군 비금면 읍동길 39,34.7557084,125.9272463
도초파출소,전라남도 신안군 도초면 서남문로1523,0,0
장산파출소,전라남도 신안군 장산면 장산로 365,34.6434514,126.1493423
가거파출소,전라남도 신안군 흑산면 가거도길 41-2,34.0521884,125.1256121
압해파출소,전라남도 신안군 압해읍 압해로 864,34.8648107,126.3147715
증도파출소,전라남도 신안군 증도면 문준경길208,0,0
신의파출소,전라남도 신안군 신의면 상동길 31 ,34.58533485,126.089657
역전파출소,전라남도 목포시  영산로 88-1,34.7904238,126.3857453
중앙파출소,전라남도 목포시  영산로121번길 61,34.7946141,126.3799259
연동파출소,전라남도 목포시  영산로 259,34.8036862,126.3943929
삼학파출소,전라남도 목포시  삼학로 151,34.7873774,126.4007743
산정파출소,전라남도 목포시  마파지로 90,34.80411545,126.3846702
죽교파출소,전라남도 목포시  북항로 117,34.8010396,126.3717263
용당파출소,전라남도 목포시  양을로 239 ,34.8123124,126.396058
상동파출소,전라남도 목포시  영산로 495-2,34.810163,126.4166228
이로파출소,전라남도 목포시  하당로 252,34.8097293,126.4237855
부주파출소,전라남도 목포시 남악1로42번길 21,34.8102586,126.4477984
쌍봉지구대,전라남도 여수시  흥국로 19,34.7636103,127.664929
소라파출소,전라남도 여수시 소라면 덕양로 452,34.7980679,127.6310643
삼일파출소,전라남도 여수시 중흥4로 20-10,34.8266533,127.6872303
돌산파출소,전라남도 여수시 돌산읍 돌산로 1258-3,34.6393033,127.7787
화양파출소,전라남도 여수시 화양면 나진길 14-12,34.7084272,127.6136485
율촌파출소,전라남도 여수시 율촌면 율촌로 103,34.8836156,127.5778238
만흥파출소,전라남도 여수시  망양로 221,34.7744517,127.7448109
화정파출소,전라남도 여수시 화정면 백야2길 9 ,0,0
남면파출소,전라남도 여수시 남면 금오로 870,34.5086816,127.7683989
삼산파출소,전라남도 여수시 삼산면 거문길 26-8,34.0255582,127.3114077
중앙파출소,전라남도 여수시  수정2길 14,34.7451529,127.7479407
동문파출소,전라남도 여수시  이순신광장로 200-1,34.7390231,127.7450493
봉산파출소,전라남도 여수시  어항로 43,34.7311273,127.7229049
남산파출소,전라남도 여수시  남산북10길 2,0,0
여문파출소,전라남도 여수시  여문1로31,0,0
미평파출소,전라남도 여수시  좌수영로 431,34.76623195,127.7021314
광무파출소,전라남도 여수시  좌수영로 150,34.7537105,127.7275308
신기파출소,전라남도 여수시  새터로 31,34.75946,127.6753285
금당지구대,전라남도 순천시  기적의도서관2길 3,34.94705755,127.5272291
왕조지구대,전라남도 순천시  왕지2길 10-8 ,0,0
남문파출소,전라남도 순천시  중앙로 2,34.9471218,127.4881967
북문파출소,전라남도 순천시  중앙로 214,34.9648179,127.4849625
별량파출소,전라남도 순천시 별량면 반곡길 2,0,0
낙안파출소,전라남도 순천시 낙안면 조정래길 776,34.9069157,127.3446542
황전파출소,전라남도 순천시 황전면 괴목길 97,0,0
송광파출소,전라남도 순천시 송광면 쌍향수길 1332 ,34.9732487,127.2641763
주암파출소,전라남도 순천시 주암면 동주로 2046,35.0764346,127.2347779
승주파출소,전라남도 순천시 승주읍 승주로 723-3,35.0144285,127.3889734
해룡파출소,전라남도 순천시 해룡면 월전길 43,34.9147672,127.5368443
연향파출소,전라남도 순천시  연향번영길 58,34.9472038,127.5180838
역전파출소,전라남도 순천시  팔마로 117,34.9461499,127.5015038
남도파출소,전라남도 순천시  지현길 21,0,0
서면파출소,전라남도 순천시 서면 동산길 16,35.0057387,127.4795571
삼산파출소,전라남도 순천시  석현동 15-11,34.9798454,127.4629862
신대파출소,전라남도 순천시 해룡면 매안5길 17,34.9315564,127.5535212
금성지구대,전라남도 나주시  학생운동길 16,35.0281295,126.7213063
왕곡파출소,전라남도 나주시 왕곡면 나주서부로 384,34.9683229,126.6708138
공산파출소,전라남도 나주시 공산면 공산로 134,34.943012,126.6075348
금천파출소,전라남도 나주시  금천면 금영로 941,35.0315638,126.7535163
노안파출소,전라남도 나주시 노안면 금산로 32-53,35.0768214,126.7328232
남평파출소,전라남도 나주시 남평읍 남평1로 37,35.0473749,126.8416749
봉황파출소,전라남도 나주시 봉황면 봉황로 702,34.9562868,126.7795184
산포파출소,전라남도 나주시 산포면 산포로 443-5,35.0372505,126.801561
영산파출소,전라남도 나주시  영산포로 188,34.9980671,126.7103498
다시파출소,전라남도 나주시 다시면 다시로 185,35.0175749,126.6377437
빛가람지구대,전라남도 나주시  그린로 310,35.0139499,126.7960823
읍내지구대,전라남도 광양시 광양읍 백운로 10,34.9707663,127.5910643
중마지구대,전라남도 광양시  시청로 22,34.93938135,127.6941055
진상파출소,전라남도 광양시 진상면 신시길 219,35.0199401,127.7193635
옥룡파출소,전라남도 광양시 옥룡면 신재로 620,35.0165898,127.619274
골약파출소,전라남도 광양시 도이3길 3,34.935381,127.6741971
광영파출소,전라남도 광양시  광영로 87,34.9621555,127.7191822
옥곡파출소,전라남도 광양시 옥곡면 옥진로 650,34.9896126,127.6982896
태금파출소,전라남도 광양시  담안길 담안길 87,0,0
포두파출소,전라남도 고흥군 포두면 우주로 616,34.5698242,127.341124
대서파출소,전라남도 고흥군 대서면 석장1길 2,34.7712046,127.2837648
봉래파출소,전라남도 고흥군 봉래면 축정2길 9,34.46375565,127.4579232
도화파출소,전라남도 고흥군 도화면 중심길 32,34.51001,127.3194979
금산파출소,전라남도 고흥군 금산면 거금중앙길 50,34.4568496,127.1228621
동강파출소,전라남도 고흥군 동강면 원유둔1길 14,34.7806144,127.3332453
읍내파출소,전라남도 고흥군 고흥읍 학교길 74,34.6087375,127.2877547
녹동파출소,전라남도 고흥군 도양읍 비봉로 146,34.5280488,127.135592
풍양파출소,전라남도 고흥군 풍양면 죽시장터길 5,34.5760705,127.2435607
과역파출소,전라남도 고흥군 과역면 고흥로 2964 ,34.6772855,127.3616666
점암파출소,전라남도 고흥군 점암면 모룡길 34,34.6542103,127.3796709
영남파출소,전라남도 고흥군 영남면 팔영로 1041,34.6026089,127.4524657
읍내지구대,전라남도 해남군 해남읍 읍사무소길 46,0,0
화원파출소,전라남도 해남군 화원면 청용길 5,34.6664613,126.326957
화산파출소,전라남도 해남군 화산면 해남화산로 1059,34.49147915,126.5149037
산이파출소,전라남도 해남군 산이면 비석길 105,34.6444701,126.4471709
송지파출소,전라남도 해남군 송지면 산정1길 104,34.3691526,126.5184812
북평파출소,전라남도 해남군 북평면 달량진길 42,34.40541045,126.6277291
문내파출소,전라남도 해남군 문내면 동헌길 36,34.59191005,126.3092059
삼산파출소,전라남도 해남군 현산면 고산로 519,0,0
황산파출소,전라남도 해남군 황산면 시등로 124,34.5757121,126.4307725
마산파출소,전라남도 해남군 마산면 은적사길 7,34.61835445,126.5708785
옥천파출소,전라남도 해남군 옥천면 해남로 397,34.5673786,126.6471076
현산파출소,전라남도 해남군 현산면 일평길 8,34.45933,126.552533
남악지구대,전라남도 무안군 삼향읍 남악영산길 49,34.81188295,126.4770178
해제파출소,전라남도 무안군 해제면 양간로 85,35.1138573,126.2968106
일로파출소,전라남도 무안군 일로읍 일로로 55,34.8496062,126.4927131
승달파출소,전라남도 무안군 무안읍 불무로 38-11,34.9883679,126.4737712
청계파출소,전라남도 무안군 청계면 영산로 1696,34.91025105,126.4304629
현경파출소,전라남도 무안군 현경면 현해로 106,35.0216014,126.409787
운남파출소,전라남도 무안군 운남면 운해로 574-1,34.9603376,126.3401582
읍내지구대,전라남도 장흥군 장흥읍 동부로 2,34.6813193,126.9083374
안양파출소,전라남도 장흥군 안양면 남부관광로 734,34.6490083,126.971709
관산파출소,전라남도 장흥군 관산읍 관산로 101,34.5641372,126.9377167
대덕파출소,전라남도 장흥군 대덕읍 대대로 931,34.4992788,126.8885142
회진파출소,전라남도 장흥군 회진면 회진로 438,34.4842071,126.9399108
장평파출소,전라남도 장흥군 장평면 평동로 14-1,34.77729,126.97888
용산파출소,전라남도 장흥군 용산면 장흥대로 2459 ,34.6143908,126.9144249
회천파출소,전라남도 보성군 회천면 우암1길 7,0,0
예당파출소,전라남도 보성군 득량면 예당길 131,34.7770521,127.1952826
읍내파출소,전라남도 보성군 보성읍 송재로 278,34.7763799,127.0891573
미력파출소,전라남도 보성군 미력면 송재로 593 ,34.8001933,127.0874811
벌교파출소,전라남도 보성군 벌교읍 채동선로 254,34.84476145,127.3443715
조성파출소,전라남도 보성군 조성면 조성로 95,34.8074203,127.2451392
복내파출소,전라남도 보성군 복내면 송재로 1812,34.892369,127.1323329
겸백파출소,전라남도 보성군 겸백면 충의로 2466,34.8288596,127.1528687
읍내지구대,전라남도 영광군 영광읍 천년로13길 29,35.2756115,126.5065378
낙월파출소,전라남도 영광군 낙월면 낙월길 78-2,35.20178635,126.136032
백수파출소,전라남도 영광군 백수읍 백수로10길 53,35.28097275,126.4240316
염산파출소,전라남도 영광군 염산면 천년로1길 53,35.218803,126.3761368
군남파출소,전라남도 영광군 군남면 천년로 837,35.2416787,126.451291
법성파출소,전라남도 영광군 법성면 법성포로1길 25-18,35.36109485,126.4420244
홍농파출소,전라남도 영광군 홍농읍 상하길41,0,0
대마파출소,전라남도 영광군 대마면 영장로 253,35.301473,126.5787329
읍내지구대,전라남도 화순군 화순읍 충의로 152,35.0544754,126.9930103
도곡파출소,전라남도 화순군 도곡면 지석로 1108,34.9975823,126.9169762
사평파출소,전라남도 화순군 남면 사호로 213,0,0
능주파출소,전라남도 화순군 능주면 관동길 19,34.9901443,126.9605355
역전파출소,전라남도 화순군 화순읍 오성로 488,35.0521167,126.9619139
동복파출소,전라남도 화순군 동복면 오지호로 285,35.0705012,127.1277681
동면파출소,전라남도 화순군 동면 충의로 773,35.0307451,127.041024
이양파출소,전라남도 화순군 이양면 이양로 133,34.8915698,126.9891189
남부파출소,전라남도 함평군 학교면 닻빼기길 2,0,0
읍내파출소,전라남도 함평군 함평읍 함장로 1202-16,35.050969,126.5035663
대동파출소,전라남도 함평군 대동면 대동길 5-8,35.0781855,126.548227
해보파출소,전라남도 함평군 해보면 밀재로 1255,35.1820972,126.6011272
월야파출소,전라남도 함평군 월야면 밀재로 1551,35.1790769,126.6318564
나산파출소,전라남도 함평군 나산면 나산길 84,35.1130556,126.6097445
서부파출소,전라남도 함평군 손불면 손무로 734,35.1418895,126.4331654
삼호지구대,전라남도 영암군 삼호읍 대불주거로 188,34.755288,126.4563582
신북파출소,전라남도 영암군 신북면 간은정로 35,34.8905672,126.6927965
시종파출소,전라남도 영암군 시종면 고분로 11,34.8946578,126.6343962
읍내파출소,전라남도 영암군 영암읍 낭주로 178,34.8037996,126.7006721
군서파출소,전라남도 영암군 군서면 왕인로 497,34.7620221,126.6315227
학산파출소,전라남도 영암군 학산면 영산로 28,34.7261435,126.5679991
진남파출소,전라남도 장성군 남면 못재로 93,35.2454418,126.8120265
북이파출소,전라남도 장성군 북이면 갈재로 3,35.4309034,126.8101585
북일파출소,전라남도 장성군 북일면 신흥로 410,35.3754548,126.8068948
읍내파출소,전라남도 장성군 장성읍 역전로 80,35.2992608,126.7806402
삼계파출소,전라남도 장성군 삼계면 사창로 58,35.259103,126.6656325
삼서파출소,전라남도 장성군 삼서면 해삼로 1163 ,35.234954,126.6471917
북하파출소,전라남도 장성군 북하면 백양로 896,35.40748205,126.8820186
읍내지구대,전라남도 강진군 강진읍 목리길 20,34.6370821,126.7755011
도암파출소,전라남도 강진군 도암면 도암중앙로 51-1,34.5444632,126.7280434
작천파출소,전라남도 강진군 작천면 평리길 58,34.7040669,126.7720809
성전파출소,전라남도 강진군 성전면 별뫼로 382,34.6911429,126.7081503
칠량파출소,전라남도 강진군 칠량면 칠량로 72,34.5723813,126.7987009
마량파출소,전라남도 강진군 마량면 마량3길 5,34.4523965,126.8164073
군동파출소,전라남도 강진군 군동면 진흥로 325 ,34.6450502,126.8160784
금성파출소,전라남도 담양군 금성면 석현길 10-9,35.3440194,127.0264691
대전파출소,전라남도 담양군 대전면 대전로 4,35.2767867,126.8883431
수북파출소,전라남도 담양군 수북면 추성1로 715 ,35.3020617,126.9297767
고서파출소,전라남도 담양군 고서면 가사문학로 320,35.2233475,126.9727691
창평파출소,전라남도 담양군 창평면 의병로 164,35.2389563,127.0181858
중앙파출소,전라남도 담양군 담양읍 중앙로 73,35.319709,126.9824374
읍내파출소,전라남도 곡성군 곡성읍 중앙로 84-1,35.2797215,127.2923817
석곡파출소,전라남도 곡성군 석곡면 석곡로 61,35.1325671,127.2535088
입면파출소,전라남도 곡성군 입면 입면로 695,35.2972927,127.2039081
삼기파출소,전라남도 곡성군 삼기면 곡순로 1425,35.2348359,127.2111054
옥과파출소,전라남도 곡성군 옥과면 대학로 153,35.2766927,127.1362711
오곡파출소,전라남도 곡성군 오곡면 기차마을로 161,35.2729403,127.3134792
죽곡파출소,전라남도 곡성군 죽곡면 오죽로 20-3,35.1509364,127.319828
읍내지구대,전라남도 완도군 완도읍 개포로 113,34.3170781,126.7418428
군외파출소,전라남도 완도군 군외면 청해진서로2100번길 66,0,0
금일파출소,전라남도 완도군 금일읍 금일로390번길 7-5,0,0
보길파출소,전라남도 완도군 보길면 보길동로 보길로 1-1,0,0
청산파출소,전라남도 완도군 청산면 도청4길 17,34.1802041,126.8583976
소안파출소,전라남도 완도군 소안면 비자39번길 33,0,0
금당파출소,전라남도 완도군 금당면 차우30번길 3-10,0,0
약산파출소,전라남도 완도군 약산면 약산로 367,34.3936223,126.8981644
고금파출소,전라남도 완도군 고금면 고금동로2번길 16,0,0
신지파출소,전라남도 완도군 신지면 신지로 551 ,34.3339483,126.8264301
노화파출소,전라남도 완도군 노화읍 이목길 29-9,0,0
조도파출소,전라남도 진도군 조도면 창리길 11,34.2987793,126.0505708
의신파출소,전라남도 진도군 의신면 돈지1길 29,34.4403847,126.2799546
읍내파출소,전라남도 진도군 진도읍 남동3길 1,34.4813539,126.2626445
고군파출소,전라남도 진도군 고군면 진도대로 280,34.4926164,126.3419215
임회파출소,전라남도 진도군 임회면 석교길 47-15,34.4058189,126.1912606
군내파출소,전라남도 진도군 군내면 진도대로 7957,34.5373688,126.2976355
지산파출소,전라남도 진도군 지산면 인지인천1길 26,0,0
읍내파출소,전라남도 구례군 구례읍 로터리길 7,35.2090999,127.465411
광의파출소,전라남도 구례군 광의면 광의철쭉동산로 8,35.2608139,127.4414807
간전파출소,전라남도 구례군 간전면 간전중앙로 188,35.1751622,127.5421389
산동파출소,전라남도 구례군 산동면 원촌길 94,35.3137733,127.4338226
토지파출소,전라남도 구례군 토지면 섬진강대로 5058,35.1981644,127.5249907
마산파출소,전라남도  구례군 마산면 화엄사로 144,35.2224471,127.4871643
산내파출소,경상북도 경주시 산내면 의곡중앙길 34 산내파출소,0,0
양남파출소,경상북도 경주시 양남면 하서중앙길 59,0,0
외동파출소,경상북도 경주시 외동읍 입실로 81,35.7104297,129.3257078
불국파출소,경상북도 경주시 산업로 2999 ,35.71363,129.3194344
역전파출소,경상북도 경주시 원화로 270 역전파출소,35.8448568,129.2175187
보문파출소,경상북도 경주시 경감로 589,35.801826,129.4277829
건천파출소,경상북도 경주시 건천읍 내서로 1109,35.8702338,129.0794268
서면파출소,경상북도 경주시 건천읍 내서로 425,35.8702338,129.0794268
안강파출소,경상북도 경주시 안강읍 안강중앙로 223 안강파출소,0,0
강동파출소,경상북도 경주시 강동면 인동새들길 10,0,0
감포파출소,경상북도 경주시 감포읍 감포로3길 40 ,0,0
문무대왕파출소,경상북도 경주시 양북면 어일1길 39(어일리 837-2),0,0
중앙파출소,경상북도 경주시 금성로 296-1 ,35.8450772,129.2070253
황남파출소,경상북도 경주시 포석로 1052,35.7751001,129.2049135
충효파출소,경상북도 경주시 충효중앙길 50-5 ,35.8449259,129.1799232
내남파출소,경상북도 경주시 내남면 포석로 370,35.7751001,129.2049135
황성파출소,경상북도 경주시 용담로 11,35.8616981,129.2177903
성건파출소,경상북도 경주시 금성로 424 성건파출소,0,0
현곡파출소,경상북도 경주시 현곡면 다경길 9-3,35.8885129,129.1802878
동천파출소,경상북도 경주시 탈해로 65,35.8478,129.2283206
용강파출소,경상북도 경주시 산업로 4354 ,35.71363,129.3194344
천북파출소,경상북도 경주시 천북면 동산3길 9,35.89838,129.27154
환여파출소,경상북도 포항시 북구  삼호로 370,36.050029,129.3713858
신광파출소,경상북도 포항시 북구 신광면 토성길 15,36.1283648,129.2609266
송라파출소,경상북도 포항시 북구 송라면 보경로 38,36.2351947,129.3379088
죽장파출소,경상북도 포항시 북구  새마을로 3606,36.0948217,129.1517205
기계파출소,경상북도 포항시 북구 기계면 기계로 92-11,36.080598,129.188954
기북파출소,경상북도 포항시 북구 기북면 기북로 433,36.1128105,129.1600696
흥해파출소,경상북도 포항시 북구 흥해읍 중성로 83,36.1096,129.3486445
청하파출소,경상북도 포항시 북구 청하면 청하로 178,36.1857505,129.3383389
양학파출소,경상북도 포항시 북구  양학로7,0,0
죽도파출소,경상북도 포항시 북구  중흥로 280,36.0313626,129.3649266
덕산파출소,경상북도 포항시 북구 중앙로 352,36.0422591,129.366042
용당파출소,경상북도 포항시 북구  용당로91번길 10,36.0382712,129.3614188
장성파출소,경상북도 포항시 북구  법원로39번길 36,36.0783868,129.3829754
학산파출소,경상북도 포항시 북구  삼호로 147,36.050029,129.3713858
양덕파출소,경상북도 포항시 북구 장량중앙로 65,36.0899175,129.3889129
효곡대이지구대,경상북도 포항시 남구 대잠길 15 ,36.0110864,129.3380087
상대지구대,경상북도 포항시 남구 상공로 84,36.0102834,129.356104
구룡포파출소,경상북도 포항시 남구 호미로 182번길,0,0
장기파출소,경상북도 포항시 남구 장기면 읍내길 94,35.8957053,129.4929997
동해파출소,경상북도 포항시 남구 동해면 일월로 52번길,0,0
제철파출소,경상북도 포항시 남구 동해안로 6041 ,35.9774698,129.5048675
호미곶파출소,경상북도 포항시 남구 호미곶면 해맞이로160,0,0
송도파출소,경상북도 포항시 남구 축항로 115 ,36.0288171,129.370521
대송파출소,경상북도 포항시 남구 대송면 제내길 13,35.9828772,129.3630125
연일파출소,경상북도 포항시 남구 연일읍 철강로25번길 62,35.9945028,129.3465464
오천파출소,경상북도 포항시 남구 오천읍 정몽주로 547 ,35.9671,129.415565
문덕파출소,경상북도 포항시 남구 오천읍 냉천로 318,35.946254,129.4023086
해도파출소,경상북도 포항시 남구 상공로 228 ,36.0102834,129.356104
상림지구대,경상북도 구미시 금오대로 482,36.0859965,128.3605464
원평지구대,경상북도 구미시 원남로2길 26,36.1299678,128.3201546
형곡지구대,경상북도 구미시 경은로 56,36.1151276,128.3377653
도량지구대,경상북도 구미시 문장로 119,36.14497,128.3310631
봉곡파출소,경상북도 구미시 봉곡남로 16,36.1527879,128.3031895
도개파출소,경상북도 구미시 도개면 도안로 121,0,0
장천파출소,경상북도 구미시 장천면 강동로 170,36.1439897,128.489511
고아파출소,경상북도 구미시 선산대로 974-6,36.1819208,128.3506172
산동파출소,경상북도 구미시 산동면 강동로 1030 ,0,0
해평파출소,경상북도 구미시 해평면 강동로 1661,36.2197526,128.3760973
선산파출소,경상북도 구미시 선산읍 선산중앙로 79,0,0
무을파출소,경상북도 구미시 무을면 상무로 951,36.2641026,128.1686381
옥성파출소,경상북도 구미시 선산읍 선상동로 841,36.2693759,128.3189835
양포파출소,경상북도 구미시 흥안로 6,36.1472993,128.4150145
신평파출소,경상북도 구미시 칠성로2길 32,36.1228786,128.3582382
인동파출소,경상북도 구미시 인동중앙로 28,36.1099163,128.4231516
진평파출소,경상북도 구미시 인동22길 33,36.0956252,128.425893
서부지구대,경상북도 경산시 성암로 27,35.8194833,128.7236579
중앙파출소,경상북도 경산시 대학로 207,35.893392,128.8201392
자인파출소,경상북도 경산시 자인면 금학로 8,35.8203658,128.8235339
동부파출소,경상북도 경산시 계양로 44,35.8194626,128.747769
하양파출소,경상북도 경산시 하양읍 금송로 179,35.9204358,128.8217071
압량파출소,경상북도 경산시 압량면 부적길 50,0,0
진량파출소,경상북도 경산시 진량읍 낙산길 6,0,0
와촌파출소,경상북도 경산시 와촌면 금송로 419 ,35.9443602,128.8354779
역전지구대,경상북도 안동시  경동로 690 ,36.5721185,128.7010241
송하지구대,경상북도 안동시  경동로 278,36.5721185,128.7010241
태화지구대,경상북도 안동시  태화2길 7,36.5628519,128.7116016
길안파출소,경상북도 안동시 길안면 천지길 41,0,0
풍천파출소,경상북도 안동시 풍천면 지풍로 1479,36.557593,128.5149313
예안파출소,경상북도 안동시 예안면 임예로 1923 ,36.65232,128.88658
풍산파출소,경상북도 안동시 풍산읍 풍산중앙길 139,36.5813658,128.5671947
임하파출소,경상북도 안동시 임하면 충효로 3257 ,36.5150009,128.8439819
남선파출소,경상북도 안동시 남선면 충효로 3854 ,36.5321505,128.788685
강남파출소,경상북도 안동시  강남로 169 ,36.552943,128.7284147
용상파출소,경상북도 안동시  경동로 959,36.5721185,128.7010241
임동파출소,경상북도 안동시 임동면 챗거리길 25,36.5669693,128.9189344
일직파출소,경상북도 안동시 일직면 경북대로 7356,36.45444,128.6723
도산파출소,경상북도 안동시  도산면 퇴계로 2543,36.7591035,128.8347626
북후파출소,경상북도 안동시 북후면 북평로 897 ,36.64219,128.69908
와룡파출소,경상북도 안동시 와룡면  퇴계로 841,36.62417,128.76605
옥동지구대,경상북도 안동시 광명로 7,36.5640329,128.7059561
아포파출소,경상북도 김천시 아포읍 국사길 143 ,36.1602521,128.2578769
남부파출소,경상북도 김천시 지례면 상부길 107,35.9834563,128.0260527
대덕파출소,경상북도 김천시 대덕면 대덕로 761 ,35.91667,127.96581
역전파출소,경상북도 김천시 김천로 119,36.1260822,128.1069742
구성파출소,경상북도 김천시 구성면 남김천대로 2327-4 ,36.05604,128.07123
중앙지구대,경상북도 김천시 영남대로 2009 ,36.1324722,128.0440125
자산파출소,경상북도 김천시 자산로 41-2,36.1230803,128.117971
조마파출소,경상북도 김천시 조마면 강곡1길 22 ,36.0351048,128.0986024
서부지구대,경상북도 김천시 송설로 106,36.1239447,128.0944889
직지파출소,경상북도 김천시 대항면 직지로 182,36.1166267,128.0184223
북부지구대,경상북도 김천시 대학로 129,36.1358944,128.0936846
어모파출소,경상북도 김천시 어모면 어모로 249,36.2176298,128.10152
감문파출소,경상북도 김천시 감문로 985,36.2038121,128.1643238
동부지구대,경상북도 김천시 혁신6로 75,36.124126,128.185174
신영주지구대,경상북도 영주시 선비로 66 신영주지구대,0,0
서부지구대,경상북도 영주시 선비로 205 서부지구대,0,0
동부지구대,경상북도 영주시 원당로 228 동부지구대,36.8294168,128.6352515
부석파출소,경상북도 영주시 부석면 소천로 49 부석파출소,0,0
장수파출소,경상북도 영주시 장수면 장수로 5 장수파출소,0,0
안정파출소,경상북도 영주시 신재로 541 안정파출소,36.8461764,128.556537
순흥파출소,경상북도 영주시 순흥면 순흥로 63 순흥파출소,0,0
풍기파출소,경상북도 영주시 풍기읍 기주로 114 풍기파출소,36.8710324,128.5236184
금호파출소,경상북도 영천시 금호읍 금호로 115,35.9302304,128.8680541
고경파출소,경상북도 영천시 고경면 호국로 1079,35.9886194,129.0933647
임고파출소,경상북도 영천시 임고면 포은로 439,36.0245519,128.9734617
화산파출소,경상북도 영천시 화산면 장수로 908,36.01868795,128.8577795
신녕파출소,경상북도 영천시 신녕면 장수로 1691,36.02957,128.80655
화남파출소,경상북도 영천시 화남면 천문로 1599,36.06623,128.89812
북안파출소,경상북도 영천시 북안면 운북로 2023,35.92659,128.9998
대창파출소,경상북도 영천시 대창면 금창로 674,35.8758418,128.8956385
동부지구대,경상북도 영천시 창신2길13,0,0
남부지구대,경상북도 영천시 완산2길 43,0,0
중앙파출소,경상북도 영천시 최무선로 303,35.9668053,128.9313786
청통파출소,경상북도 영천시 청통면 금송로 1025 ,35.99398,128.82076
중앙지구대,경상북도 상주시 상서문로 63 ,0,0
동문지구대,경상북도 상주시 중앙로 371 ,36.4156865,128.1556245
모동파출소,경상북도 상주시 모동면 용호1길 21 ,36.3196615,127.9600476
화북파출소,경상북도 상주시 화북면 문장로 1718 ,36.56874,127.91145
은척파출소,경상북도 상주시 은척면 봉중1길 6 ,36.5326723,128.0732682
낙동파출소,경상북도 상주시 낙동면 영남제일로 105 ,36.3872713,128.260997
화동파출소,경상북도 상주시 화동면 이소1길 42 ,36.3895711,127.9541374
사벌국파출소,경상북도 상주시 사벌면 덕담1길 59 ,36.4661236,128.2089047
청리파출소,경상북도 상주시 청리면 청리중앙로 166-10 ,36.3337426,128.1255591
공성파출소,경상북도 상주시 공성면 공성중앙로 99 ,36.28654,128.09483
공검파출소,경상북도 상주시 공검면 비재로 1288 ,36.51278735,128.1566012
함창파출소,경상북도 상주시 함창읍 함창중앙로 112 ,36.5686697,128.1770061
화서파출소,경상북도 상주시 화서면 화령로 21 ,36.4445095,127.9498037
농암파출소,경상북도 문경시 농암면 농암길 78,36.5979571,128.0018781
가은파출소,경상북도 문경시 가은읍 가은로 137,36.64067,128.05875
산북파출소,경상북도 문경시 산북면 강동로 14,0,0
산양파출소,경상북도 문경시 산양면 산양로 107,36.6094981,128.2520855
점촌파출소,경상북도 문경시 돈달로 142 ,36.6041208,128.2022885
남부파출소,경상북도 문경시 모전로 144,36.5877514,128.1909988
문경파출소,경상북도 문경시 문경읍 문희로 61,36.7357312,128.1077406
마성파출소,경상북도 문경시 호계면 문경대로 1768,0,0
왜관지구대,경상북도 칠곡군 왜관읍 2번도로길 33,35.9987993,128.3973071
석적지구대,경상북도 칠곡군 석적읍 석적로 965,36.0745604,128.3936373
북삼지구대,경상북도 칠곡군 북삼읍 인평1길 2,36.0619057,128.3349707
동명파출소,경상북도 칠곡군 동명면 금암중앙길 21,35.9829463,128.5534086
지천파출소,경상북도 칠곡군 지천면 신동로 154,35.9569294,128.4865933
가산파출소,경상북도 칠곡군 동명면 경북대로 1576,35.9729709,128.5527578
약목파출소,경상북도 칠곡군 약목면 약목로3길 12 ,0,0
의성지구대,경상북도 의성군 의성읍 충효로 65,0,0
안평파출소,경상북도 의성군 안평면 안평의성로 1,36.38084,128.6002
단밀파출소,경상북도 의성군 단밀면 주속길 70,0,0
봉양파출소,경상북도 의성군 봉양면 도리원1길 53,0,0
안계파출소,경상북도 의성군 안계면 안계길 143,36.38464015,128.4367131
춘산파출소,경상북도 의성군 춘산면 금성현서로 1491,36.2388951,128.8172912
금성파출소,경상북도 의성군 금성면 탑리길 55,36.2559298,128.6811553
옥산파출소,경상북도 의성군 옥산면 신감옥산로 1228-3,36.35855,128.79667
다인파출소,경상북도 의성군 다인면 서릉길 62,36.4502056,128.3532486
풍각파출소,경상북도 청도군 풍각면 헐티로 212 ,35.6411775,128.6246733
이서파출소,경상북도 청도군 이서면 학산1길 48 ,0,0
중앙파출소,경상북도 청도군 청도읍 청화로 194,35.63943,128.7472862
화양파출소,경상북도 청도군 화양읍 도주관로 142 ,35.6506266,128.7091084
금천파출소,경상북도 청도군 금천면 금천로 46,35.69286435,128.891199
매전파출소,경상북도 청도군 매전면 청려로 3711 ,35.69153,128.8307895
남정파출소,경상북도 영덕군 남정면 진불길 29,36.2865619,129.3727724
영덕파출소,경상북도 영덕군 영덕읍 중앙길 89,36.41027,129.3730662
강구파출소,경상북도 영덕군 강구면 동해대로 4482,36.3704245,129.3790403
영해파출소,경상북도 영덕군 영해면 예주2길 9,36.5374892,129.4081902
축산파출소,경상북도 영덕군 축산면 영덕대게로 2049,36.4963217,129.4401404
병곡파출소,경상북도 영덕군 병곡면 병곡길 62,36.6027761,129.4115075
기성파출소,경상북도 울진군 기성면 기성로 667 ,36.8317399,129.436026
북면파출소,경상북도 울진군 북면 울진북로 2080 북면파출소,37.1020767,129.3732532
죽변파출소,경상북도 울진군 죽변면 죽변중앙로 159,37.0594355,129.4216546
울진파출소,경상북도 울진군 울진읍 읍내10길 20 ,36.9964907,129.4028435
근남파출소,경상북도 울진군 근남면 울진북로 147 근남파출소,0,0
후포파출소,경상북도 울진군 후포면 울진대게로 34-8,36.6776975,129.4460656
평해파출소,경상북도 울진군 평해읍 평해로 61,36.7248974,129.4408821
금강송파출소,경상북도 울진군 금강송면 불영계곡로 1723 ,36.9378084,129.2463366
석포파출소,경상북도 봉화군 석포면 석포로1길 6,37.0469268,129.0645324
춘양파출소,경상북도 봉화군 춘양면 의양로 54,36.9355334,128.9132009
소천파출소,경상북도 봉화군 소천면 소천로 1259,36.9382505,129.0028332
명호파출소,경상북도 봉화군 명호면 노루목재길 24,0,0
봉화파출소,경상북도 봉화군 봉화읍 봉화로 1077,36.86313,128.68196
물야파출소,경상북도 봉화군 물야면 문수로 981 ,36.9789486,128.7332361
예천지구대,경상북도 예천군 예천읍 충효로 198,36.6509408,128.4522
용궁파출소,경상북도 예천군 용궁면 용궁로 92,36.6084454,128.2902303
풍양파출소,경상북도 예천군 풍양면 낙상1길 60-3,36.5101674,128.2995721
용문파출소,경상북도 예천군 용문면 용문경천로 1213 ,36.6858012,128.4154444
호명지구대,경상북도 예천군 호명면 호명로 547번지,0,0
지보파출소,경상북도 예천군 지보면 지보로 151,36.5318681,128.3755874
감천파출소,경상북도 예천군 예천읍 충효로 1385,36.6509408,128.4522
은풍파출소,경상북도 예천군 은풍면 은풍로 85 ,36.74311,128.44225
벽진파출소,경상북도 성주군 벽진면 벽봉로 17,35.9503249,128.2160637
수륜파출소,경상북도 성주군 수륜면 참별로 917,35.8696604,128.1829941
가천파출소,경상북도 성주군 가천면 가천로 73,35.8810336,128.1712833
초전파출소,경상북도 성주군 초전면 대장길 111,35.9680548,128.2648504
선남파출소,경상북도 성주군 선남면 관화길 90,35.9025452,128.3505772
용암파출소,경상북도 성주군 용암면 운용로 1025,35.8327,128.33861
중부지구대,경상북도 성주군 성주읍 성밖숲길 151,35.9140651,128.2859558
진보파출소,경상북도 청송군 진보면 진보로 129 진보파출소,0,0
주왕산파출소,경상북도 청송군 주왕산면 이전앞길 5,36.3566306,129.1626868
현동파출소,경상북도 청송군 현동면 청송로 2667,36.29051,129.01649
안덕파출소,경상북도 청송군 안덕면 안덕로 95,36.2875489,128.9566927
현서파출소,경상북도 청송군 현서면 구산동로 43,36.2752844,128.8956768
청송파출소,경상북도 청송군 청송읍 금월로 273,36.4329771,129.0562755
부남파출소,경상북도 청송군 부남면 대전로 127,36.34182,129.05913
입암파출소,경상북도 영양군 입암면 입암로 72,36.59087,129.08873
석보파출소,경상북도 영양군 석보면 원리길 15,36.560186,129.1254392
수비파출소,경상북도 영양군 수비면 한티로 459 ,36.7649883,129.202299
청기파출소,경상북도 영양군 청기면 청기1길 9-6,36.6611707,129.0623515
영양파출소,경상북도 영양군 영양읍 동서대로 29,36.6623575,129.1179413
부계파출소,경상북도 군위군 부계면 창평길 29 ,0,0
의흥파출소,경상북도 군위군 의흥면 읍내6길 7,0,0
중앙파출소,경상북도 군위군 군위읍 중앙길 73,0,0
효령파출소,경상북도 군위군 효령면 치산효령로 2383,0,0
성산파출소,경상북도 고령군 성산면 성산로 954,35.75205,128.38167
다산파출소,경상북도 고령군 다산면 평리1길 15-1,0,0
대가야지구대,경상북도 고령군 대가야읍 시장길 1길 5,0,0
쌍림파출소,경상북도 고령군 대가야읍 대가야로 610,35.7422366,128.2747638
저동파출소,경상북도 울릉군 울릉읍 봉래2길 30-2 저동파출소,0,0
도동파출소,경상북도 울릉군 울릉읍 도동4길 4번지 도동파출소,0,0
서면파출소,경상북도 울릉군 서면 남양4길 37,37.4674396,130.8379423
북면파출소,경상북도 울릉군 북면 천부1길 20,37.5414006,130.8743181
신월지구대,경상남도 창원시 성산구  신사로45번길 35,35.2275862,128.6926822
가음정지구대,경상남도 창원시 성산구  원이대로863번길 22 ,35.2084122,128.6974935
중앙파출소,경상남도 창원시 성산구  원이대로566번길 27-19,35.2268364,128.6764934
반송파출소,경상남도 창원시 성산구  원이대로473번길 17,35.2354505,128.6699187
사파파출소,경상남도 창원시 성산구  대암로 113 ,35.2156019,128.7088261
신촌파출소,경상남도 창원시 성산구  봉양로 408,35.1792058,128.6432948
명곡지구대,경상남도 창원시 의창구 원이대로261번길 16-19,35.2443812,128.6510299
의창파출소,경상남도 창원시 의창구 의창대로266번길 11,0,0
팔용파출소,경상남도 창원시 의창구 창원대로397번길 30,35.236661,128.6433915
동읍파출소,경상남도 창원시 의창구 동읍 의창대로 902,35.27877025,128.6891872
북면파출소,경상남도 창원시 의창구 천주로 1127,35.3510262,128.6080049
대산파출소,경상남도 창원시 의창구 대산면 진산대로 415,35.33672635,128.7085791
신마산지구대,경상남도 창원시 마산합포구  문화남5길 52,35.1844524,128.5575471
완월파출소,경상남도 창원시 마산합포구 중앙남11길 12,35.1920707,128.563524
남성파출소,경상남도 창원시 마산합포구  3·15대로 295,35.2032111,128.5701732
오동파출소,경상남도 창원시 마산합포구  천하장사로 111,35.2119696,128.5748242
교방파출소,경상남도 창원시 마산합포구 교방서1길 40,35.2130335,128.5645971
구산파출소,경상남도 창원시 마산합포구 구산면 구산로562,0,0
진동파출소,경상남도 창원시 마산합포구 진동면 삼진의거대로 661 ,35.1171357,128.489231
진전파출소,경상남도 창원시 마산합포구 진전면 대실로 156,35.1021283,128.4191294
합성지구대,경상남도 창원시 마산회원구  합성남8길 21,35.2384536,128.585638
양덕지구대,경상남도 창원시 마산회원구  양덕동2길 6 양덕파출소,0,0
석전파출소,경상남도 창원시 마산회원구  석전동6길 20,35.2306921,128.5752243
산호파출소,경상남도 창원시 마산합포구  산호북15길 1,35.2180099,128.5818447
회원파출소,경상남도 창원시 마산회원구 회원남25길 73,35.2182153,128.5644165
삼계파출소,경상남도 창원시 마산회원구 내서읍 삼계로 32 (삼계파출소),35.2321766,128.5012944
중리파출소,경상남도 창원시 마산회원구 내서읍 호원로164,0,0
비봉지구대,경상남도 진주시  비봉로33번길 2 ,35.1937774,128.0806351
상대지구대,경상남도 진주시  동진로 263,35.1804271,128.119946
남강지구대,경상남도 진주시  창렬로7번길 14,35.189601,128.0720928
진양호지구대,경상남도 진주시  평거로 42,35.1738505,128.0651947
하대지구대,경상남도 진주시  대신로 323-6,35.18938,128.1161575
개양파출소,경상남도 진주시  진주대로 560,35.1568283,128.1078071
충무공파출소,경상남도 진주시 충무공동 충의로 149,35.17472105,128.1498816
문산파출소,경상남도 진주시 문산읍 동부로587번길 1,35.1676439,128.164068
금산파출소,경상남도 진주시 금산면 금산로 111,35.2144379,128.1464373
일반성파출소,경상남도 진주시 일반성면 창촌길 27-1,35.1721569,128.2776279
지수파출소,경상남도 진주시 지수면 지수로 492,35.235412,128.2702524
수곡파출소,경상남도 진주시 수곡면 곤수로 903,35.194402,127.9375347
대곡파출소,경상남도 진주시 대곡면 진의로 1065 ,35.2622183,128.1685085
연지지구대,경상남도 김해시 내외중앙로 118,35.24024045,128.8683224
신어지구대,김해시 삼안로217번길 32,35.246751,128.907862
왕릉지구대,경상남도 김해시 해반천로168번길 8,35.2629053,128.8680778
중앙지구대,경상남도 김해시 가락로 30 ,35.22912,128.8825235
상동파출소,경상남도 김해시 상동면 상동로 553,35.3081078,128.9303092
대동파출소,경상남도 김해시 대동면 대동로 595,35.2403577,128.9700792
생림파출소,경상남도 김해시 봉림로 21 ,35.326362,128.8489369
장유지구대,경상남도 김해시  계동로 102번길 19,0,0
율하파출소,경상남도 김해시 율하숲길 12,35.1700911,128.8226097
진영파출소,경상남도 김해시 진영읍 진영로 167,35.3032879,128.7314051
한림파출소,경상남도 김해시 한림면 한림로 453,35.3254798,128.7983024
진례파출소,경상남도 김해시 진례면 진례로 235,35.2484311,128.7482055
주촌파출소,경상남도 김해시 주촌면 서부로1638번길 7,35.235943,128.8313296
칠산파출소,경상남도 김해시  칠산로459번길 15,35.2123734,128.8516928
물금지구대,경상남도 양산시 물금읍 가촌로 61,35.3147263,128.9899006
증산파출소,경남상남도 양산시 물금읍 증산리 1747-1,0,0
덕계파출소,경상남도 양산시  덕계로 95,35.3760101,129.1526019
서창파출소,경상남도 양산시 삼호로 158,35.4125933,129.1730216
중앙파출소,경상남도 양산시 북안남5길 11-16,35.34598415,129.0402967
삼성파출소,경상남도 양산시  북정11길 4 ,35.3616171,129.0481963
동면파출소,경상남도 양산시 동면 내송로 39 ,35.3231172,129.0618444
상북파출소,경상남도 양산시 상북면 상북중앙로 394,35.4206341,129.0653389
하북파출소,경상남도 양산시 하북면 신평로 24,35.4905235,129.0872023
양주파출소,경상남도 양산시  양주로 34,35.33159235,129.026946
소주파출소,경상남도 양산시 대평들 1길 9-17,0,0
평산파출소,경산남도 양산시 평산로 79,0,0
신현지구대,경상남도 거제시  고현천로 135,34.8807435,128.630657
옥포지구대,경상남도 거제시  옥포로22길 21,34.89547535,128.6929913
장평지구대,경상남도 거제시  장평1로 154,34.8918792,128.6043774
장승포지구대,경상남도 거제시  장승로 109,34.8644326,128.7228922
아주지구대,경상남도 거제시  아주로 47,34.8646402,128.6897898
연초파출소,경상남도 거제시 연초면 거제대로 4275 ,34.9117402,128.6532076
거제파출소,경상남도 거제시 남부면 거제남서로 3431 ,34.7234935,128.5972108
동부파출소,경상남도 거제시 남부면 거제남서로 3118 ,34.7234935,128.5972108
장목파출소,경상남도 거제시 장목면 거제북로 1165,34.9873003,128.6808921
덕산지구대,"경상남도 창원시 진해구  덕산로 36번길 9, 덕산지구대",0,0
용원지구대,"경상남도 창원시 진해구  용원로41번길 12, 용원파출소",35.1007058,128.8143439
충무파출소,"경상남도 창원시 진해구  벚꽃로 36, 충무파출소",35.1497147,128.6606274
경화파출소,"경상남도 창원시 진해구  충장로 329, 경화파출소",35.1538396,128.6881925
웅동파출소,"경상남도 창원시 진해구  웅동로57번가길 5, 웅동파출소",35.1255914,128.7824168
자은파출소,"경상남도 창원시 진해구 장복대로 157, 자은파출소",35.154174,128.7132688
광도지구대,경상남도 통영시 광도면 죽림3로 25,0,0
북신지구대,경상남도 통영시  무전대로 40,34.8597871,128.4250273
미수지구대,경상남도 통영시  운하2길 17,0,0
중앙지구대,경상남도 통영시  중앙로 170,34.8466678,128.4242853
산양파출소,경상남도 통영시 산양읍 산양중앙로 1,34.8013666,128.3882648
욕지파출소,경상남도 통영시 욕지면 천왕로 29,34.6362815,128.2647202
한산파출소,경상남도 통영시 한산면 한산일주로 840-1,34.7672211,128.5080468
사량파출소,경상남도 통영시 사량면 진촌2길 17,34.8445088,128.2250732
삼천포지구대,경상남도 사천시  중앙로 89(동금동),0,0
사천지구대,경상남도 사천시 사천읍 평화2길 31(평화리),0,0
용현파출소,경상남도 사천시  진삼로 635(송지리),0,0
남양파출소,경상남도 사천시  진삼로 122(송포동),0,0
사남파출소,경상남도 사천시  진삼로 1101(죽천리),0,0
곤양파출소,경상남도 사천시 곤양면 성내공원길 8(성내리),0,0
서포파출소,경상남도 사천시 서포면 서포로 284-16(구평리),0,0
곤명파출소,경상남도 사천시 곤명면 곤명1로 105(봉계리),0,0
중앙지구대,경상남도 밀양시 상남면 밀양대로 1881,35.3891121,128.747921
역전파출소,경상남도 밀양시  중앙로 60,35.5008025,128.7438542
하남파출소,경상남도 밀양시 하남읍 수산중앙로 41-1,35.3749382,128.7098685
삼랑진파출소,경상남도 밀양시 삼랑진읍 천태로 70,35.3995586,128.8426094
상남파출소,경상남도 밀양시 상남면 밀양대로 1495,35.4653617,128.758058
무안파출소,경상남도 밀양시 무안면 사명로 543,35.4730906,128.6528906
부북파출소,경상남도 밀양시 부북면 부북로 41,35.51434,128.7273
산외파출소,경상남도 밀양시 산외면 산외로 429,0,0
산내파출소,경상남도 밀양시 산내면 산내로 323-1,35.5845403,128.8802123
단장파출소,경상남도 밀양시 단장면 표충로 356,35.5147299,128.8753631
아림지구대,경상남도 거창군 거창읍 중앙로1길 20-5,35.6881118,127.9142995
원학파출소,경상남도 거창군 위천면 장터길 22-5,0,0
가조파출소,경상남도 거창군 거창읍 가조가야로 1079 ,35.6956775,127.921867
웅양파출소,경상남도 거창군 웅양면 웅양로 1432,35.8050824,127.9185844
남상파출소,경상남도 거창군 남상면 수남로 1845,35.644915,127.9090806
신원파출소,경상남도 거창군 신원면 과정리 187-7,0,0
고제파출소,경상남도 거창군 고제면 입석2길 14번지,0,0
중부지구대,경상남도 합천군 합천읍 충효로 106-5,35.5698987,128.1625405
가야파출소,경상남도 합천군 가야면 가야시장로 19,35.7562962,128.1386172
대병파출소,경상남도 합천군 대병면 신성동길 20,35.5217921,128.01439
삼가파출소,경상남도 합천군 삼가면 삼가1로 73,35.4148653,128.1208493
야로파출소,경상남도 합천군 야로면 가야산로 343,35.70511,128.1684049
봉산파출소,경상남도 합천군 봉산면 서부로 4337,35.6272266,128.0425021
동부파출소,경상남도 합천군 초계면 초계중앙로 43,35.5593971,128.2649208
영산지구대,경상남도 창녕군 영산면 영산계성로 96,35.4597458,128.525787
창녕읍파출소,경상남도 창녕군 창녕읍 종로 61,35.542776,128.4991708
남지파출소,경상남도 창녕군 남지읍 선창길 9,35.3884619,128.4823342
부곡파출소,경상남도 창녕군 부곡면 원앙로 188,35.4374807,128.5892733
대합파출소,경상남도 창녕군 대합면 창한로 121,0,0
유어파출소,경상남도 창녕군 유어면 우포1대로 563,35.5070024,128.4098479
이방파출소,경상남도 창녕군 이방면 뒷골길 3,0,0
공룡지구대,경상남도 고성군 대가면 대가로 27,34.9839665,128.3184159
동해파출소,경상남도 고성군 동해면 장기3길 136,35.0419887,128.4228966
거류파출소,경상남도 고성군 거류면 거류로 655,34.9895386,128.404505
회화파출소,경상남도 고성군 회화면 배둔로19,0,0
하이파출소,경상남도 고성군 하이면 남일로 433,34.9285958,128.1224914
상리파출소,경상남도 고성군 상리면 척번정1길 98,34.9994617,128.1869246
영오파출소,경상남도 고성군 영오면 영산1길 11,35.1077723,128.2372912
화개파출소,경상남도 하동군 화개면 쌍계로 8,35.2064491,127.6377657
악양파출소,경상남도 하동군 악양면 악양서로 343,35.1611082,127.7087964
횡천파출소,경상남도 하동군 횡천면 경서대로 1207,35.1095657,127.8173656
금남파출소,경상남도 하동군 금남면 제먼당길 99,0,0
금성파출소,경상남도 하동군 금성면 금성중앙길 2 ,0,0
옥종파출소,경상남도 하동군 옥종면 은행나무길 78,0,0
읍내파출소,경상남도 하동군 하동읍 중앙로 36,35.0708341,127.7488692
진교파출소,경상남도 하동군 진교면 민다리안길 114,35.0260708,127.9031479
중앙지구대,경상남도 남해군 남해읍 화전로96번길 30 중앙지구대,34.8397765,127.8971184
창선파출소,경상남도 남해군 창선면 창선로 99 창선파출소,34.8578667,128.0125046
고현파출소,경상남도 남해군 고현면 탑동로 75-4 고현파출소,34.8979197,127.8720737
미조파출소,경상남도 남해군 미조면 미송로 52 미조파출소,34.7123066,128.0456263
삼동파출소,경상남도 남해군 삼동면 동부대로1876번길 8 삼동파출소,34.8314247,128.0003748
남면파출소,경상남도 남해군 남면 남서대로 774 남면파출소,34.7712275,127.8871974
읍내파출소,경상남도 함양군 함양읍 교산4길 11,0,0
안의파출소,경상남도 함양군 안의면 금성길 15,35.6291731,127.8106787
서상파출소,경상남도 함양군 서상면 서상로 299-1,35.6825249,127.6858982
수동파출소,경상남도 함양군 수동면 수동길 11,35.5223113,127.7860822
유림파출소,경상남도 함양군 유림면 천왕봉로 2883,35.4673775,127.7915009
백전파출소,경상남도 함양군 백전면 구산대안로 10,35.5522938,127.6360373
마천파출소,경상남도 함양군 마천면 천왕봉로 1157,35.3962024,127.6642274
경호지구대,경상남도 산청군 산청읍 중앙로 34 ,35.4148025,127.8780817
시천파출소,경상남도 산청군 시천면 덕산대포로 7-2,35.2779476,127.8379433
단성파출소,경상남도 산청군 단성면 목화로 1006,35.2997467,127.9596742
신안파출소,경상남도 산청군 신안면 지리산대로 3477,35.3036073,127.9722842
신등파출소,경상남도 산청군 신등면 신등가회로 21,35.3793111,128.0108948
대산파출소,경상남도 함안군 대산면 대산중앙로 174,35.3499963,128.4316792
법수파출소,경상남도 함안군 법수면 우거북길 48,0,0
함안파출소,경상남도 함안군 함안면 함안대로 111 ,35.2420319,128.4220041
칠서파출소,경상남도 함안군 칠서면 청계2길 27,35.3334984,128.4984032
군북파출소,경상남도 함안군 군북면 함마대로 822,35.2621842,128.3473625
가야지구대,경상남도 함안군 가야읍 가야로 24,35.2769815,128.4038204
칠원지구대,경상남도 함안군 칠원읍 구성길 9,0,0
중부지구대,경남 의령군 의령읍 의병로 176,35.318861,128.2559412
유곡파출소,경남 의령군 유곡면 마장로18-1,0,0
정곡파출소,경남 의령군 정곡면 법정로 930,35.37984,128.3263496
지정파출소,경남 의령군 지정면 함의로 1527,35.3827723,128.3864423
칠곡파출소,경남 의령군 칠곡면 칠곡로 32,35.3410328,128.1922766
화정파출소,경남 의령군 화정면 화정로 297,35.2775265,128.211398
부림파출소,경남 의령군 부림면 대한로 1757,35.4661666,128.3242666
중앙지구대,제주특별자치도 제주시  북성로 3,33.51565,126.523978
남문지구대,제주특별자치도 제주시  연신로 6,33.5000439,126.5437617
오라지구대,제주특별자치도 제주시  서광로 182,33.49962715,126.5158052
삼양지구대,제주특별자치도 제주시  일주동로 397,33.5217292,126.5874543
아라파출소,제주특별자치도 제주시 중앙로 609,33.4697707,126.547112
조천파출소,제주특별자치도 제주시 조천읍 신북로 265,33.5386622,126.6399996
함덕파출소,제주특별자치도 제주시 조천읍 신북로 신북로 515,33.5421747,126.6649812
구좌파출소,제주특별자치도 제주시 구좌읍 구좌로 45,33.5235061,126.8563469
추자파출소,제주특별자치도 제주시 추자면 대서3길 2,33.96394695,126.2959602
우도파출소,제주특별자치도 제주시 우도면 우도로 21,33.4947668,126.9523108
연동지구대,제주특별자치도 제주시  신대로 97,33.488497,126.496729
노형지구대,제주특별자치도 제주시  광평동로 4,33.4812093,126.4720263
하귀파출소,제주특별자치도 제주시 애월읍 하귀로 47,33.4805121,126.4022716
애월파출소,제주특별자치도 제주시 애월읍 애월로 116-1,33.4642484,126.3195625
한림파출소,제주특별자치도 제주시 한림읍 한림로 651,33.4142922,126.2624669
한경파출소,제주특별자치도 제주시 한경면 두신로 133,33.35453085,126.1854966
외도파출소,제주특별자치도 내도동 723,33.4919235,126.4429775
중동지구대,제주특별자치도 서귀포시  태평로 552,33.2526848,126.575818
남원파출소,제주특별자치도 서귀포시 남원읍 태위로 702,33.2795583,126.7214812
성산파출소,제주특별자치도 서귀포시 성산읍 성산중앙로 53 성산파출소,33.4643912,126.9343169
표선파출소,제주특별자치도 서귀포시 표선면 표선동서로 217,33.3234936,126.8313036
안덕파출소,제주특별자치도 서귀포시 안덕면 화순로 116,33.2514368,126.3407678
대정파출소,제주특별자치도 서귀포시 대정읍 상모로 310 ,33.2230839,126.2560114
중문파출소,제주특별자치도 서귀포시  천제연로 165,33.2523426,126.4224121
대신파출소,제주특별자치도 서귀포시  신서귀로51번길 18,33.2541711,126.5092626
효돈파출소,제주특별자치도 서귀포시  효돈로 171-1,33.2638468,126.6171393
서울교통공사,서울특별시 성동구 천호대로 346,37.56257115,127.0571964
방화역(5호선),서울특별시 강서구 금낭화로 132 방화역 5호선,37.5774435,126.8122806
개화산역(5호선),서울특별시 강서구 양천로 22 개화산역,37.556697,126.8649971
김포공항역(5호선),서울특별시 강서구,37.5509,126.8497
송정역(5호선),서울특별시 강서구 공항대로 33 송정역(5호선),37.559343,126.8262314
마곡역(5호선),서울특별시 강서구 공항대로 163 마곡역,37.5602492,126.8247463
발산역(5호선),서울특별시 강서구 공항대로 267 발산역,37.5586427,126.8375612
우장산역(5호선),서울특별시 강서구 화곡로 168 화곡역 5호선,37.5549937,126.8525522
화곡역(5호선),서울특별시 강서구 화곡로 168 화곡역 5호선,37.5549937,126.8525522
까치산역(5호선),서울특별시 강서구 강서로 54 까치산역,37.5321119,126.8465265
